building_id,name_uk,region,raion,city,district,microdistrict,address_uk,class,latitude,longitude,is_risky,state,developer_offer
7,"ЖК Іспанський",Одеська,NULL,Одеса,Хаджибейський,"Цукорне сел.","пров. Іспанський, 12",3,46.47720810496,30.689454842359,no,built,all_sold
8,"ЖК Армійський",Одеська,NULL,Одеса,Приморський,"Середній Фонтан","вул. Армійська, 8а, 8б, 8г",2,46.447749622305,30.74525126831,no,built,all_sold
16,"ЖК Панорама на Печерську",Київська,NULL,Київ,Печерський,"Нижній Печерськ","вул. Євгена Коновальця (Щорса), 44а",2,50.42257680223414,30.537777842962377,no,built,all_sold
17,"ЖК Пори Року",Київська,NULL,Київ,Солом'янський,Солом'янка,"вул. Мокра (Кудряшова), 14, 16, 18, 20, 20б, 20г",2,50.43031004702142,30.48630638794537,no,built,all_sold
18,"ЖК Golden Park",Київська,NULL,Київ,Шевченківський,Сирець,"вул. Парково-Сирецька (Тимофія Шамрила), 4б",2,50.464316953072,30.438607442493,no,built,all_sold
19,"ЖК Смарагдовий",Київська,NULL,Київ,Солом'янський,Солом'янка,"вул. Генерала Шаповала (Механізаторів), 2",4,50.430436880123,30.484166425131,no,built,all_sold
20,"ЖК Паркове місто",Київська,NULL,Київ,Подільський,"Вітряні Гори","вул. Вишгородська, 45",2,50.509893760884765,30.44802836574557,no,under_construct,available
22,"ЖК Престиж Холл",Київська,NULL,Київ,Печерський,"Нижній Печерськ","вул. Василя Тютюнника (Анрі Барбюса), 37/1",3,50.421248533292,30.526252195106,no,built,frozen
23,"ЖК Авіатор",Київська,NULL,Київ,Солом'янський,Відрадний,"просп. Любомира Гузара (Космонавта Комарова), 22-28",1,50.439334743443766,30.42178798084259,yes,built,all_sold
24,"ЖК Тріумф",Київська,NULL,Київ,Печерський,Звіринець,"вул. Звіринецька, 59",2,50.407525213349,30.555207598954,no,built,all_sold
25,"ЖК Сонячна брама",Київська,NULL,Київ,Голосіївський,Голосіїв,"вул. Юлії Здановської (Ломоносова), 73-79",2,50.385790818837,30.471530678149,no,built,all_sold
27,"ЖК Акварелі",Київська,Бучанський,Вишневе,NULL,NULL,"вул. Святошинська, 27",1,50.38953705128405,30.36615718677282,no,built,all_sold
28,"ЖК 4 сезони",Київська,NULL,Київ,Голосіївський,Голосіїв,"вул. Михайла Максимовича (Трутенка), 3г",4,50.390913646154,30.479942315385,no,under_construct,available
29,"ЖК Атлант 2",Київська,NULL,Коцюбинське,NULL,NULL,"вул. Пономарьова, 26",1,50.488192881298,30.341968004676,no,built,all_sold
30,"ЖК Botanic Paradise",Київська,NULL,Київ,Шевченківський,"Нова забудова","вул. Назарівська (Вєтрова), 23а",3,50.4436864468,30.49931530955,no,built,all_sold
35,"ЖК Новопечерські Липки",Київська,NULL,Київ,Печерський,"Чорна Гора","вул. Андрія Верхогляда (Драгомирова), 1-20а",2,50.411472918135,30.545440520524,no,under_construct,available
36,"ЖК Park Avenue VIP",Київська,NULL,Київ,Голосіївський,Деміївка,"просп. Голосіївський, 58а",3,50.40117345789475,30.512080489473682,no,built,all_sold
41,"ЖК Покровський посад",Київська,NULL,Київ,Шевченківський,Кудрявець,"вул. Глибочицька, 32а, 32б, 32в",2,50.461923725323,30.493509639055,no,built,all_sold
42,"ЖК Приозерний",Київська,NULL,Київ,Дарницький,Позняки,"вул. Здолбунівська, 11в",1,50.41477110895807,30.621060104557046,yes,suspended,frozen
44,"ЖК Чайка",Київська,Бучанський,Чайки,NULL,NULL,"вул. Лобановського, 1-36",4,50.44132857224597,30.287169324343694,no,built,available
45,"ЖК Паркові озера",Київська,NULL,Київ,Дніпровський,Воскресенка,"вул. Воскресенська, , 18, 18-а, 18-б, 18-г",4,50.466556423022,30.602926981814,no,built,all_sold
47,"ЖК Олександрівський",Київська,NULL,Київ,Солом'янський,"Олександрівська Слобідка","просп. Валерія Лобановського (Червонозоряний), 4а, 4б, 4в, 4г",2,50.42254722575069,30.462656506883583,no,built,all_sold
49,"ЖК Вікторія",Київська,NULL,Київ,Святошинський,Святошино,"просп. Берестейський (Перемоги), 119-121",4,50.454801583333335,30.36112784166667,no,built,all_sold
50,"ЖК Воскресенський",Київська,NULL,Київ,Дніпровський,Воскресенка,"вул. Інтернаціонального легіону (Петра Запорожця), 26а",2,50.479575217074,30.604247493265575,no,built,all_sold
51,"ЖК Парковий",Київська,NULL,Київ,Святошинський,Борщагівка,"бул. Кольцова, 14",4,50.42382033333333,30.382027893333333,no,built,all_sold
52,"ЖК Голосіїво",Київська,NULL,Київ,Голосіївський,Деміївка,"вул. Голосіївська, 13, 13а, 13б",2,50.3996566390446,30.521005716949457,no,built,all_sold
53,"ЖК Рів'єра Ріверсайд",Київська,NULL,Київ,Дніпровський,Лівобережний,"вул. Раїси Окіпної, 18",2,50.447450058403824,30.589288947082483,no,built,all_sold
55,"ЖК Альпійське містечко",Київська,NULL,Київ,Солом'янський,Солом'янка,"вул. Протасів Яр, 8",3,50.42711448676518,30.499635199812474,no,built,all_sold
56,"ЖК Перлина Кадетського Гаю",Київська,NULL,Київ,Солом'янський,"Кадетський Гай","вул. Ернста Федора, 16",1,50.415962425872316,30.46370644583887,no,built,all_sold
57,"ЖК Ольжин Град",Київська,Вишгородський,Вишгород,NULL,NULL,"просп. Шевченка, 2",1,50.581405207189,30.488861711549,no,built,all_sold
58,"ЖК Берізки",Київська,Вишгородський,Вишгород,NULL,NULL,"вул. Шолуденка, 6",1,50.590510187164,30.483696257034,no,built,all_sold
59,,Київська,NULL,Київ,Оболонський,Оболонь,"просп. Володимира Івасюка (Героїв Сталінграда), 2",2,50.490854893791465,30.527974028465444,no,built,all_sold
60,"ЖК Ліко-Град 3",Київська,NULL,Київ,Голосіївський,Теремки-2,"вул. Юлії Здановської (Ломоносова)",1,50.3862471294059,30.466693288520673,no,built,all_sold
61,,Київська,NULL,Київ,Дніпровський,Соцмісто,"вул. Гашека, 8а",2,50.435900449395874,30.628070949999938,no,built,all_sold
63,,Київська,NULL,Київ,Дніпровський,Березняки,"вул. Тичини, 18б",1,50.428010427553,30.603505559231,no,built,all_sold
64,,Київська,NULL,Київ,Солом'янський,Солом'янка,"вул. Липківського, 18, 18в",2,50.43393838310511,30.48412764712145,no,built,all_sold
65,,Київська,NULL,Київ,Дарницький,Позняки,"вул. Княжий Затон, 9",2,50.402030731801375,30.624979239425613,no,built,all_sold
66,"ЖК Західний",Київська,Бучанський,Чайки,NULL,NULL,"вул. Коцюбинського, 9",1,50.429266127490784,30.285024706867684,no,built,frozen
67,"ЖК Silver Breeze",Київська,NULL,Київ,Дніпровський,Березняки,"Дніпровська набережна, 1, 1а, 1б",2,50.42830433868702,30.594531186514814,yes,built,frozen
68,"ЖК Перлина Нивок",Київська,NULL,Київ,Шевченківський,Нивки,"вул. Данила Щербаківського (Щербакова), 52",1,50.470647005,30.406437725,no,built,all_sold
69,"ЖК Петропавлівський",Київська,Бучанський,"Петропавлівська Борщагівка",NULL,NULL,"вул. Авіаторів, 41а",2,50.4379669,30.324468600000003,no,built,all_sold
70,"ЖК Мега-сіті",Київська,NULL,Київ,Дніпровський,"Стара Дарниця","Харківське шосе, 19",1,50.43150758824253,30.634988628311152,no,built,all_sold
71,,Київська,NULL,Київ,Солом'янський,"Караваєві Дачі","вул. Миколи Голего (Лебедєва-Кумача), 7в",2,50.438807778580006,30.438174403427098,no,built,all_sold
72,,Київська,NULL,Київ,Подільський,Виноградар,"просп. Правди, 80-82",2,50.505844247795,30.418309796204,yes,built,all_sold
74,"ЖК PecherSKY",Київська,NULL,Київ,Печерський,Звіринець,"бул. Дружби Народів, 40 / вул. Болсуновська (Струтинського), 2",3,50.421239319372226,30.552816541037714,no,built,all_sold
75,"ЖК Home & Park Comfort House",Київська,NULL,Бориспіль,NULL,NULL,"вул. Бежівка, 14",4,50.348881652285,30.960071800104,yes,suspended,frozen
78,"ЖК Три Богатирі",Київська,NULL,Київ,Солом'янський,Шулявка,"вул. Борщагівська, 182в",2,50.44366535533737,30.437015881743378,no,suspended,frozen
80,,Київська,NULL,Київ,Дарницький,Осокорки,"вул. Єлизавети Чавдар, 1",1,50.39368871231586,30.618281830688442,no,built,all_sold
81,,Київська,NULL,Київ,Оболонський,Мінський,"вул. Петра Калнишевського (Михайла Майорова), 7 (5а)",2,50.521863801730404,30.463768185180697,no,built,all_sold
82,"ЖК Ново-Деміївський",Київська,NULL,Київ,Голосіївський,Деміївка,"просп. Валерія Лобановського (Червонозоряний), 150-162",1,50.4068211758022,30.50902584496389,no,built,all_sold
83,"ЖК Green House",Київська,NULL,Бориспіль,NULL,NULL,"пров. Бабкіна, 6",4,50.361599693009,30.926529658472,no,built,all_sold
84,,Київська,NULL,Київ,Святошинський,Святошино,"вул. Крамського, 9",1,50.45344845,30.372688450000002,no,built,all_sold
85,"ЖК Щасливе",Київська,Бориспільський,Щасливе,NULL,NULL,"вул. Лесі Українки, 14",2,50.377765591988,30.794539494078,no,built,all_sold
86,"ЖК Едем",Київська,NULL,Бровари,NULL,NULL,"вул. Чубинського, 4",1,50.52598453870626,30.788983488409826,no,built,all_sold
87,"ЖК Henesi House",Київська,NULL,Київ,Шевченківський,Татарка,"вул. Нагірна, 18/16",4,50.473061378907936,30.482147494331002,no,built,all_sold
88,,Київська,NULL,Київ,Святошинський,Святошино,"вул. Львівська, 26а",2,50.45495254865507,30.372754474868714,no,built,all_sold
89,"ЖК Оваціо",Київська,NULL,Бровари,NULL,NULL,"вул. Симона Петлюри (Черняховського), 11г",0,50.518414284916,30.807092308622,no,built,all_sold
91,"Будинок на Пчілки",Київська,NULL,Київ,Дарницький,Позняки,"вул. Олени Пчілки, 4, 4а",1,50.41635200680179,30.629168098147538,no,built,all_sold
93,,Київська,NULL,Київ,Дарницький,Позняки,"вул. Урлівська, 36",1,50.410657745905056,30.616714163462348,no,built,all_sold
108,,Київська,NULL,Київ,Дарницький,Позняки,"вул. Ахматової, 30 (будм-к. 7, Позняки-2)",1,50.40816062194602,30.623019828747374,no,built,all_sold
110,"ЖК Зелений мис",Київська,NULL,Київ,Святошинський,Новобіличі,"вул. Генерала Наумова, 66",2,50.47076836085973,30.329698186508182,no,built,all_sold
120,,Київська,NULL,Київ,Дарницький,Позняки,"вул. Дніпровська набережна, 19, 19а, 19в, 23, 25",1,50.407135456475,30.613294355571,no,built,all_sold
143,"ЖК Комфорт Таун",Київська,NULL,Київ,Дніпровський,Соцмісто,"вул. Регенераторна, 4",4,50.438021593753,30.620627526866,no,built,all_sold
165,"ЖК Троєщина",Київська,NULL,Київ,Деснянський,Троєщина,"вул. Миколи Лаврухіна, 11, 12, 13, 14",1,50.518061644051,30.598089008459,no,built,all_sold
167,,Київська,NULL,Київ,Дарницький,Осокорки,"вул. Гмирі, 6",0,50.393165,30.626928,no,built,all_sold
174,,Київська,NULL,Київ,Голосіївський,"Нова забудова","вул. Антоновича (Горького), 72",4,50.42667050010239,30.513879652778627,no,built,all_sold
180,"ЖК Jardan Le Roi",Київська,NULL,Київ,Печерський,Звіринець,"вул. Бусовогірська (Гастелло), 10",3,50.40978132000001,30.556891459999996,no,built,all_sold
182,"ЖК Лазурний блюз",Київська,NULL,Київ,Дніпровський,"Лівобережний масив","вул. Туманяна, 15а",2,50.44387445512174,30.604766271513846,no,built,all_sold
184,,Київська,NULL,Київ,Дарницький,Осокорки,"вул. Єлизавети Чавдар, 3, 5, 7, 9",1,50.393930281172,30.621336568147,no,built,all_sold
186,,Київська,NULL,Київ,Дніпровський,Соцмісто,"вул. Каунаська, 2а",4,50.438929905467,30.623141247779,no,suspended,frozen
187,,Київська,NULL,Київ,Шевченківський,"Історичний центр","вул. Богдана Хмельницького, 58а",2,50.448094414121364,30.50536172023769,yes,built,contact_unavailable
197,"ЖК Тридцять восьма перлина",Київська,NULL,Київ,Голосіївський,"Нова забудова","вул. Жилянська, 68",2,50.43656812241047,30.503355721011758,no,built,all_sold
199,,Київська,NULL,Київ,Дарницький,Позняки,"вул. Урлівська, 40",0,50.41158043242967,30.61519599999999,no,built,all_sold
202,,Київська,NULL,Київ,Дарницький,Позняки,"вул. Урлівська, 34а",0,50.41015439486262,30.617618730629374,no,built,all_sold
216,,Київська,NULL,Київ,Дарницький,Позняки,"вул. Урлівська, 30",1,50.409479859200566,30.618627437326033,no,built,all_sold
219,"ЖК Ново-Микільський",Київська,NULL,Київ,Святошинський,Борщагівка,"просп. Леся Курбаса, 7-7а",0,50.42612417966764,30.382030908673944,no,built,all_sold
221,,Київська,NULL,Київ,Дарницький,Позняки,"вул. Урлівська, 38 (будм-к. 4, Позняки-2)",1,50.411625744718,30.616483950173,no,built,all_sold
222,,Київська,NULL,Київ,Дарницький,Позняки,"вул. Урлівська (будм-к. 4в, Позняки-2)",1,50.410882733333345,30.618953345833336,no,built,all_sold
224,,Київська,NULL,Київ,Шевченківський,Нивки,"вул. Януша Корчака (Баумана), 25",0,50.46733651111111,30.41687388888889,no,built,all_sold
228,,Київська,NULL,Київ,Солом'янський,Шулявка,"вул. Борщагівська, 208",4,50.44253527630987,30.435132279497566,no,built,all_sold
234,,Київська,NULL,Київ,Солом'янський,Солом'янка,"вул. Солом'янська, 15а",0,50.42459132349428,30.47867825531445,no,built,all_sold
236,"ЖК Вишневий квартал",Київська,Бучанський,Вишневе,NULL,NULL,"вул. Європейська (Жовтнева), 31а",2,50.392264643895,30.376002956182,no,built,all_sold
243,,Київська,NULL,Київ,Голосіївський,"Багринова гора","пров. Моторний, 9, 9а",1,50.376629379757,30.540554413466,no,built,all_sold
244,,Київська,NULL,Київ,Голосіївський,Мишоловка,"просп. Науки, 80а/73",1,50.37533381428572,30.539412671428575,no,built,all_sold
246,,Київська,NULL,Київ,Дарницький,Бортничі,"вул. Євгенія Харченка (Леніна), 47-59",1,50.38234142700315,30.699327243022708,no,built,all_sold
256,"ЖК Молодіжний квартал",Київська,NULL,Київ,Дарницький,Осокорки,"вул. Ващенко, 1, 3, 5, 7, вул. Єлизавети Чавдар, 2, 4, 6, 8, 14, 18, 22, 24",1,50.390647896020674,30.623686165668552,no,built,all_sold
267,"ЖК Затишний",Київська,NULL,Київ,Шевченківський,Сирець,"вул. Степана Руданського, 3, 3а",1,50.468044899999995,30.430799875,yes,built,all_sold
271,"ЖК Вертикаль",Київська,NULL,Київ,Солом'янський,КПІ,"пров. Ковальський, 19",4,50.44695106597709,30.448858547142095,no,built,all_sold
276,"ЖК Richmond",Київська,NULL,Київ,Печерський,"Нижній Печерськ","вул. Джона Маккейна (Івана Кудрі), 26",2,50.418314780901845,30.539445597678423,no,built,all_sold
277,"ЖК Шулявський",Київська,NULL,Київ,Солом'янський,Шулявка,"пров. Машинобудівний, 26",4,50.448872443039,30.43573453836,no,suspended,all_sold
278,"ЖК Срібна Вежа",Київська,NULL,Київ,Шевченківський,Лук'янівка,"вул. Білоруська, 36а",2,50.46571696363637,30.47309499090909,no,built,all_sold
280,"ЖК Чисті сосни",Київська,Обухівський,Українка,NULL,NULL,"вул. Будівельників, 11",1,50.15368192294055,30.73728924732969,no,built,all_sold
282,,Київська,NULL,Київ,Дніпровський,ДВРЗ,"вул. Інженера Бородіна (Лазо), 4-6",1,50.448256096212745,30.671727721555612,no,built,all_sold
287,"ЖК Виноградний (Синьоозерний)",Київська,NULL,Київ,Подільський,Виноградар,"просп. Правди, 102",1,50.507966094945516,30.407266540227692,yes,suspended,frozen
299,"ЖК Будинок на Жуковського",Дніпропетровська,NULL,Дніпро,Соборний,Нагорний,"вул. Левка Лук’яненка (Жуковського), 3г",3,48.456312378304,35.059835263924,no,built,all_sold
301,"ЖК Континент",Дніпропетровська,NULL,Дніпро,Соборний,Нагорний,"вул. Барикадна / просп. Дмитра Яворницького (Карла Маркса), 34-36",3,48.461934211988,35.055044310545,no,frozen,contact_unavailable
315,"ЖК Сосновий бір",Київська,NULL,Київ,Святошинський,Новобіличі,"вул. Олевська, 3, 15, 17 / вул. Бахмацька, 20",1,50.47927323571428,30.344332921428578,yes,built,frozen
319,,Київська,NULL,Київ,Голосіївський,Ширма,"вул. Козацька, 112-114",1,50.398646,30.498077999999964,no,built,all_sold
321,,Київська,NULL,Київ,Подільський,"Мостицький масив","просп. Правди, 5",1,50.50485788571429,30.44765665238095,no,built,all_sold
322,,Київська,NULL,Київ,Оболонський,"Вишгородський масив","вул. Автозаводська, 29а",2,50.50811215538819,30.457470839286763,no,built,all_sold
323,,Київська,NULL,Київ,Печерський,Печерськ,"бул. Лесі Українки, 7б",3,50.43283716838143,30.534036052807778,no,built,all_sold
324,"ЖК Ревуцького, 9",Київська,NULL,Київ,Дарницький,"Нова Дарниця","вул. Ревуцького, 9",4,50.419213956217,30.642685588449,no,built,all_sold
335,"ЖК Васильківський",Київська,NULL,Київ,Голосіївський,Голосіїв,"пров. Коломийський, 17/31",2,50.39351955276762,30.49117915212321,no,built,all_sold
336,,Київська,NULL,Київ,Деснянський,Троєщина,"просп. Червоної Калини (Маяковського), 1-3",1,50.497498562157,30.582936443388,no,built,all_sold
337,"ЖК Милославичі",Київська,NULL,Київ,Деснянський,Троєщина,"вул. Закревського, 95, 97, 97а, вул. Милославська, 11, 13, 14",1,50.529369159296,30.626343377363,no,built,all_sold
340,"ЖК Перовський",Київська,NULL,Київ,Дніпровський,Воскресенка,"просп. Воскресенський (бул. Перова), 10а, вул. Алішера Навої, 69",1,50.47155686498633,30.599377385488886,no,built,all_sold
341,,Київська,NULL,Київ,Дніпровський,ДВРЗ,"вул. Алма-Атинська, 109б",1,50.45221912487071,30.68110207605745,no,built,all_sold
342,,Київська,NULL,Київ,Дніпровський,Соцмісто,"вул. Червоноткацька, 43",1,50.4552274070129,30.63125678749998,no,built,all_sold
343,"ЖК Елегант",Київська,NULL,Київ,Шевченківський,"Нова забудова","вул. Жилянська, 118",2,50.441945833333335,30.496742,no,built,all_sold
344,"Клубний будинок „На Мічуріна“",Київська,NULL,Київ,Печерський,Звіринець,"вул. Ломаківська (Мічуріна), 61",3,50.422279583333335,30.563176266666662,no,built,all_sold
345,"ЖК Райдужний",Київська,Обухівський,Українка,NULL,NULL,"вул. Київська, 3",1,50.15500934611408,30.73629643464087,no,built,all_sold
346,,Київська,NULL,Київ,Шевченківський,"Історичний центр","вул. Десятинна, 11",3,50.457255149999995,30.5195334,no,built,all_sold
347,,Київська,NULL,Київ,Оболонський,"Вишгородський масив","вул. Вишгородська, 54б",1,50.518051133814446,30.451796424977488,no,built,all_sold
356,"ЖК Софіївський",Київська,Бучанський,"Софіївська Борщагівка",NULL,NULL,"вул. Лесі Українки, 19",1,50.401913725,30.379242175,no,built,all_sold
363,"ЖК Зоряне містечко",Одеська,NULL,Одеса,Приморський,"Середній Фонтан","вул. Армійська, 11",4,46.44965538092106,30.746101173927286,no,built,all_sold
364,"ЖК Каскад",Одеська,NULL,Одеса,Київський,Таїрова,"вул. Левітана, 62",0,46.40759299664949,30.722963859919787,no,built,all_sold
365,"ЖК Янтарний",Одеська,NULL,Ілічанка,NULL,NULL,"вул. Шкільна, 25, 35, 37, вул. Таврійська, 39, 41",1,46.59924428333333,30.801790949999997,no,built,available
366,"ЖК Руслан і Людмила",Одеська,NULL,Одеса,Приморський,"Середній Фонтан","вул. Літературна, 12",4,46.419625,30.75971100000004,no,built,all_sold
367,"ЖК Європейський",Одеська,NULL,Крижанівка,NULL,NULL,"вул. Бочарова / вул. Сахарова",1,46.583324305586245,30.80919642511617,no,built,all_sold
369,"ЖМ Сьоме Небо",Одеська,NULL,Авангард,NULL,NULL,"вул. Проїзна, 1-15",1,46.452495607042,30.639891698956,no,under_construct,available
371,"ЖК Зоряне містечко-2",Одеська,NULL,Одеса,Приморський,"Середній Фонтан","вул. Маршала Говорова, 10а",1,46.448502477504,30.747632327281,no,built,all_sold
376,"ЖК Затишний",Одеська,NULL,Одеса,Хаджибейський,"Цукорне сел.","вул. Михайла Грушевського / вул. Генерала Плієва, 1",3,46.479755537305,30.686241723597,no,built,all_sold
377,"ЖК Арк Палас",Одеська,NULL,Одеса,Приморський,Аркадія,"вул. Генуезька, 1а",3,46.43862503328961,30.758589236979375,no,built,all_sold
378,"ЖК Ясна Поляна",Одеська,NULL,Одеса,Приморський,Відрада,"вул. Відрадна, 13",3,46.467826449181466,30.75441096488248,no,built,all_sold
379,"ЖК Аркадія Хіллс",Одеська,NULL,Одеса,Приморський,"Середній Фонтан","пров. Аркадіївський, 9/1",2,46.42630267931503,30.756976391148783,no,built,all_sold
381,"ЖК Замок цветов",Одеська,NULL,Одеса,Приморський,Центр,"Деволанівський узвіз, 12",3,46.478818760138,30.745180135187,no,built,all_sold
382,"ЖК Ренесанс",Одеська,NULL,Одеса,Приморський,Центр,"пров. Онілової, 20",3,46.4734597,30.7358246,no,built,all_sold
383,"ЖК Капітан",Одеська,NULL,Одеса,Приморський,Центр,"вул. Базарна, 5",4,46.472815490476194,30.75072296666667,no,built,all_sold
384,"ЖК Ланжерон",Одеська,NULL,Одеса,Приморський,Ланжерон,"вул. Віри Інбер, 5",3,46.4724089450868,30.758137000239003,no,built,all_sold
386,"ЖК Чудо-город",Одеська,NULL,Одеса,Приморський,"Середній Фонтан","вул. Середньофонтанська, 19",0,46.458627934393,30.740717579393,no,built,all_sold
390,"ЖК Фаворит",Одеська,NULL,Одеса,Хаджибейський,"Суднобудівний сел.","вул. Артилерійська, 4в",0,46.447079246138,30.734854252892,no,built,all_sold
392,"ЖК 5 елемент",Одеська,NULL,Одеса,Приморський,"Середній Фонтан","вул. Черняховського",0,46.438466,30.74717050000004,no,built,all_sold
395,"ЖК Перша Перлина",Одеська,NULL,Одеса,Приморський,Аркадія,"вул. Гагарінське плато, 5а",2,46.4322004,30.7642508,no,built,all_sold
396,"ЖК Люксембург",Одеська,NULL,Одеса,Хаджибейський,Молдаванка,"вул. Середня, 24к1, 24к2, 24к3, 24к4, 24к5, 24к6",2,46.47323895,30.7121542,no,built,all_sold
397,"ЖК Усадьба Разумовского",Одеська,NULL,Одеса,Приморський,Молдаванка,"вул. Разумовська, 10/12",1,46.4743343,30.720473500000026,no,built,all_sold
398,"ЖК Одеський",Одеська,NULL,Одеса,Хаджибейський,"Ближні Млини","вул. Шота Руставелі",1,46.45222381708317,30.717713555838404,no,built,all_sold
399,"ЖК Одеський двір",Одеська,NULL,Одеса,Хаджибейський,Слобідка-Воронцовка,"вул. Генерала Цвєтаєва, 11",1,46.46050124346344,30.72366432286799,no,built,frozen
400,"ЖК Тирас",Одеська,NULL,Одеса,Київський,Таїрова,"вул. Академіка Корольова, 5/4",1,46.413566325340504,30.72489277459681,no,built,all_sold
402,"ЖК Золота Чайка",Одеська,NULL,Одеса,Київський,Таїрова,"Люстдорфська дорога, 36 / вул. Вільямса",1,46.38650055606,30.729481778375,no,built,all_sold
403,"ЖК Ступени",Одеська,NULL,Фонтанка,NULL,NULL,"вул. Центральна",1,46.572373732000685,30.86310625076294,no,built,all_sold
404,"ЖК Еталон",Одеська,NULL,Одеса,Хаджибейський,"Ближні Млини","вул. Малиновського, 16б",4,46.44052144444445,30.720593611111116,no,built,all_sold
405,"ЖМ Острови",Одеська,NULL,Одеса,Пересипський,"селище Котовського","вул. Марсельська, 29а, 30, 31/1, 31/2, 46/1, 46/2, 46/3, 48",4,46.57089237204359,30.79990246419512,no,built,available
406,"ЖК Наследие Дерибаса",Одеська,NULL,Одеса,Приморський,Центр,"Військовий узвіз, 13",3,46.486902956625,30.73725512578,no,built,available
408,"ЖК Гагарін Плаза 1",Одеська,NULL,Одеса,Приморський,Аркадія,"вул. Гагарінське плато, 5/1",2,46.431542550369,30.763474727342,no,built,all_sold
410,"ЖК Прохорівський",Одеська,NULL,Одеса,Хаджибейський,Молдаванка,"вул. Прохоровська",1,46.468504316817,30.719046145677,no,built,all_sold
412,"ЖК Дом у фонтана",Одеська,NULL,Одеса,Приморський,"Середній Фонтан","вул. Маршала Говорова, 10б",1,46.447078375343345,30.748258064804077,no,built,all_sold
441,"ЖК Амфітеатр",Дніпропетровська,NULL,Дніпро,Соборний,Каміння,"вул. Володимира Вернадського (Дзержинського), 35т",3,48.46363667651008,35.06447542975366,no,built,all_sold
445,"ЖК Фестивальний",Дніпропетровська,NULL,Дніпро,Соборний,Каміння,"вул. Січеславська Набережна (Набережна Леніна), 45, 47, 49, 49а",3,48.46525012,35.06342840000001,no,built,all_sold
448,"ЖК Славія",Дніпропетровська,NULL,Дніпро,Соборний,Нагорний,"просп. Дмитра Яворницького (Карла Маркса), 1а, 3",3,48.451047366667,35.07023505,yes,built,frozen
451,"ЖК Санаторний",Київська,NULL,Київ,Дарницький,"Нова Дарниця","вул. Санаторна, 4",0,50.429847210477,30.658267938064,no,built,all_sold
452,,Київська,NULL,Київ,Святошинський,Академмістечко,"вул. Миколи Краснова, 19",1,50.459990624999996,30.372595125,no,built,all_sold
453,"ЖК Флагман",Київська,NULL,Київ,Дніпровський,Соцмісто,"пров. Лобачевського, 7, 7а",1,50.4364775578762,30.63454740612787,yes,built,contact_unavailable
456,"ЖК Времена года",Дніпропетровська,NULL,Дніпро,Соборний,Нагорний,"вул. Героїв Крут (Фурманова), 11",1,48.449787957602,35.064256166063,no,frozen,contact_unavailable
461,"ЖК Домінанта",Дніпропетровська,NULL,Дніпро,Соборний,Табірний,"вул. Сімферопольська, 19б",1,48.448185141325,35.06742210205,no,built,contact_unavailable
465,"ЖК Магнат КМ",Дніпропетровська,NULL,Дніпро,Соборний,Нагорний,"просп. Дмитра Яворницького (Карла Маркса), 5",4,48.452019299064,35.0687779556,no,built,all_sold
466,"ЖК Георгіївський",Дніпропетровська,NULL,Дніпро,Амур-Нижньодніпровський,"Старе Клочко","вул. Дарницька, 19",1,48.505083535034,35.069214196767,no,built,all_sold
467,"ЖК Новая победа",Дніпропетровська,NULL,Дніпро,Соборний,Мандриківка,"бул. Слави / вул. Новорічна",1,48.41202824999999,35.059306925,no,frozen,all_sold
468,"ЖБ Акварель",Дніпропетровська,NULL,Дніпро,Соборний,"Лоцманська Кам'янка","вул. Євпаторійська, 2б",1,48.406697752904,35.067599614483,no,built,all_sold
469,,Дніпропетровська,NULL,Дніпро,Шевченківський,Центр,"вул. Князя Володимира Великого (Плеханова), 15г",2,48.4694073585952,35.041104862466455,no,frozen,frozen
470,"ЖК  Cascade Plaza",Дніпропетровська,NULL,Дніпро,Соборний,Нагорний,"Катеринославський бульвар, 1",3,48.46074067906904,35.050546657294035,no,built,available
471,"БФК „Дом на Катеринославском“",Дніпропетровська,NULL,Дніпро,Шевченківський,Центр,"Катеринославський бульвар",3,48.460300307511,35.048599598652,no,built,all_sold
477,"ЖК Карат",Харківська,NULL,Харків,Київський,Центр,"вул. Потебні, 6",3,49.994225479034924,36.239678034393364,no,built,all_sold
480,"ЖК Журавлевский",Харківська,NULL,Харків,Київський,Журавлівка,"вул. Новоолександрівська, 54а",1,50.012958312122876,36.27812340402306,no,built,all_sold
481,"ЖК Янтарный",Харківська,NULL,Харків,Салтівський,"604-тий мікрорайон","просп. Тракторобудівників, 94б",1,49.9944683,36.345562,no,built,all_sold
482,"ЖК Crystal Park",Київська,NULL,Київ,Шевченківський,Шулявка,"просп. Берестейський (Перемоги), 42",3,50.455970914214426,30.45217577368021,no,built,all_sold
484,"ЖК Гринвіч",Харківська,NULL,Харків,Салтівський,"Рашкіна Дача","вул. Малиновська, 19",0,49.992216396057,36.269933539379,no,built,all_sold
485,"ЖК Молодіжне містечко",Харківська,NULL,Харків,Шевченківський,Олексіївка,"просп. Перемоги, 53б",1,50.057620592823,36.194061790222,no,built,all_sold
486,"ЖК Алексеевский",Харківська,NULL,Харків,Шевченківський,Олексіївка,"просп. Перемоги, 66д",1,50.06021888013,36.213022670926,no,built,all_sold
490,"ЖК Green Town",Харківська,NULL,Харків,Шевченківський,Олексіївка,"вул. Ахсарова (мкрн 337)",2,50.051637806699,36.210148718611,no,built,all_sold
491,"ЖК Каскад",Харківська,NULL,Харків,Основ’янський,Центр,"пров. Подільський (вул. Гамарника), 8 / пров. Ковальський, 22",3,49.98534318911445,36.235520934686065,no,built,all_sold
492,"ЖК Едельвейс",Харківська,NULL,Харків,Немишлянський,"Нові Будинки","вул. Олімпійська, 10б",2,49.9604264723,36.31318522632,no,built,all_sold
493,"ЖК Тріумф",Харківська,NULL,Харків,Шевченківський,"Павлово Поле","просп. Науки (Леніна), 47/1",2,50.036733425,36.21803859166667,no,built,all_sold
495,"ЖК Молодіжний",Харківська,NULL,Харків,Шевченківський,Олексіївка,"вул. Цілиноградська, 48",1,50.046828966658,36.203847825751,no,built,all_sold
497,"ЖК Гранд",Харківська,NULL,Харків,Шевченківський,"Павлово Поле","пров. Отакара Яроша, 12а",2,50.022991765227,36.216187494188,no,built,all_sold
498,"ЖК Квартет",Харківська,NULL,Харків,Салтівський,"603-тій мікрорайон","просп. Ювілейний (50-річчя ВЛКСМ), 61",1,49.99884226031018,36.34630440608214,no,built,all_sold
499,"ЖК Авантаж",Харківська,NULL,Харків,Шевченківський,Шатилівка,"вул. Культури, 22б",3,50.01306808666666,36.23185585,no,built,all_sold
500,"ЖК Фаворит",Харківська,NULL,Харків,Київський,Нагірний,"вул. Сумська, 130",3,50.01661767198569,36.251905453837026,no,built,all_sold
507,"ЖК Consol City",Харківська,NULL,Харків,Шевченківський,Павлівка,"вул. Самарська / вул. Мирна",2,50.014017297596,36.209851701383,no,in_design,frozen
509,"ЖК Нова Шатилівка",Харківська,NULL,Харків,Шевченківський,Шатилівка,"вул. Шатилівська (Леніна), 1а",2,50.013434073773,36.233172258534,no,suspended,frozen
514,"ЖК Науковий",Харківська,NULL,Харків,Шевченківський,Шатилівка,"вул. Серпова, 4а",3,50.014826928514935,36.23195518316379,no,built,all_sold
515,"ЖК Полтавський Шлях 144",Харківська,NULL,Харків,Холодногірський,"Холодна Гора","вул. Полтавський Шлях, 144",2,49.98378164096287,36.18429769340764,no,under_construct,all_sold
517,"ЖК Дом в Сокольниках",Харківська,NULL,Харків,Шевченківський,Сокільники,"вул. Професорська, 34",2,50.032578889669644,36.254696292398876,no,built,all_sold
519,"ЖК Ювілейний",Харківська,NULL,Харків,Салтівський,"602-ий мікрорайон","просп. Ювілейний (50-років ВЛКСМ), 67б",2,49.99641684638291,36.35763265872193,no,built,all_sold
520,"ЖК На Холодній горі",Харківська,NULL,Харків,Холодногірський,"Холодна Гора","вул. Верхньогієвська, 89в",2,49.991039258902,36.170372106135,no,built,all_sold
521,"ЖК Ювілейний",Харківська,NULL,Харків,Салтівський,"Рашкіна Дача","пров. Санжарівський",1,49.994707613082,36.257949586029,no,built,all_sold
522,"ЖК Салтівське шосе",Харківська,NULL,Харків,Салтівський,Салтівка,"Салтівське шосе, 73в, 73г",1,49.990203774207,36.307710783543,no,built,all_sold
523,"ЖК Монте-Плаза",Харківська,NULL,Харків,Шевченківський,"Павлово Поле","просп. Науки (Леніна), 45/3",2,50.03879642557748,36.21836459660148,no,built,all_sold
527,,Київська,NULL,Київ,Дарницький,Бортничі,"вул. Дяченка (Бортничі), 20, 20а, 20б, 20в",1,50.37972946475106,30.706342339950545,no,built,all_sold
529,,Київська,NULL,Київ,Дарницький,"Нова Дарниця"," Харківське шосе, 58б",1,50.421949777901,30.6451424025,no,built,all_sold
531,"ЖК Smart Plaza Polytech",Київська,NULL,Київ,Шевченківський,Шулявка,"просп. Берестейський (Перемоги), 26",2,50.45147712083334,30.468262895833323,no,built,available
532,,Київська,NULL,Київ,Солом'янський,"Олександрівська Слобідка","вул. Максима Кривоноса, 17/8",1,50.424591517610565,30.471353330024705,no,built,all_sold
533,"ЖК Адмірал",Київська,NULL,Київ,Святошинський,Біличі,"вул. Миколи Ушакова, 1б, 1в, 1г, 1д",2,50.458876928382026,30.33773811534047,no,built,all_sold
537,,Київська,NULL,Васильків,NULL,NULL,"вул. Першого Травня, 12/1",1,50.174090200999,30.32966148202,no,built,all_sold
539,"ЖК НебоSky",Київська,NULL,Київ,Деснянський,Троєщина,"вул. Закревського, 42а",1,50.52137129944552,30.630479629638625,no,built,frozen
540,"ЖК Гранд Лайф",Київська,NULL,Ірпінь,NULL,NULL,"вул. Григорія Сковороди, 1, 3, 5, 7",1,50.518989213833,30.203887201846,no,built,all_sold
541,,Київська,NULL,Ірпінь,NULL,NULL,"вул. Виговського (Суворова), 22, 22а",1,50.517452737664,30.224893958679,no,built,all_sold
542,"ЖК Юність",Київська,Фастівський,Чабани,NULL,NULL,"вул. Юності, 3",1,50.33645016030673,30.42349307861332,no,built,all_sold
543,"ЖК Суворов",Київська,NULL,Ірпінь,NULL,NULL,"вул. Виговського (Суворова), 1о, 1р, 1т, 1ю, 1я, вул. Лермонтова, 2г, 2н",1,50.507471676030974,30.226143756881356,no,built,all_sold
544,,Київська,NULL,Ірпінь,NULL,NULL,"вул. 10 Лінія, 13г",1,50.539682121236,30.265816949701,no,built,all_sold
545,"ЖК Матросова",Київська,NULL,Ірпінь,NULL,NULL,"вул. Матросова, 21, 21а, 21б, 21в, 19б",1,50.503466255173635,30.241651726646523,yes,built,all_sold
546,,Київська,NULL,Ірпінь,NULL,NULL,"вул. Єрощенка (Островського), 12а",1,50.50525219861,30.244953653247,no,built,all_sold
547,,Київська,NULL,Ірпінь,NULL,NULL,"вул. Полтавська, 69",1,50.537076669128055,30.257183057701695,no,built,all_sold
548,,Київська,NULL,Ірпінь,NULL,NULL,"вул. Тищенко, 21б, 21в",1,50.515853,30.2320324,no,built,all_sold
559,"ЖК Городок",Київська,Бучанський,"Софіївська Борщагівка",NULL,NULL,"вул. Машинобудівників",2,50.39577100256287,30.38156347527547,no,built,available
561,"ЖК Ліпінка",Київська,NULL,Київ,Подільський,"Мостицький масив","вул. Замковецька, 102, 102а, 102б, 104, 104а, 106, 106а, 106б, вул. Кавалерідзе, 1, 3, 5, 7, 9, 11, вул. Данченка, 2, 4, 6, 8, 10",4,50.495100481867,30.431032586843,no,built,all_sold
562,"ЖК RiverStone",Київська,NULL,Київ,Дарницький,Позняки,"вул. Дніпровська набережна, 14, 14а, 14б",2,50.402637776506374,30.614323994786997,no,built,all_sold
563,,Київська,NULL,Київ,Дніпровський,"Лівобережний масив","вул. Ованеса Туманяна, 3",2,50.4463566375,30.601369587500002,no,built,all_sold
564,"ЖК H-Tower",Київська,NULL,Київ,Шевченківський,Центр,"бул. Тараса Шевченка, 28-30",3,50.445189032216554,30.50488673660766,no,built,all_sold
565,"ЖК Новосельцево",Київська,Бориспільський,Чубинське,NULL,NULL,"вул. Виставкова, 12, 14, 16, 18, 20, 22",1,50.387040565899255,30.840749585443504,no,built,available
566,"ЖК Петрівський оновлений",Київська,Бучанський,Святопетрівське,NULL,NULL,"вул. Теплична, 42 (вул. Червоного Пахаря, 2в)",1,50.38001542889905,30.319759462077172,no,built,all_sold
567,"ЖК Авіа Квартал",Київська,Бучанський,Вишневе,NULL,NULL,"вул. Вітянська, 2",4,50.390142299803,30.381610675849,no,built,available
568,"ЖК Софіївська Слобідка",Київська,Бучанський,"Софіївська Борщагівка",NULL,NULL,"вул. Амосова, вул. Боголюбова, вул. Південна, вул. Франка",1,50.398313080122,30.376564924034,no,built,all_sold
570,"ЖК Гранд Резорт",Київська,NULL,Ворзeль,NULL,NULL,"вул. Європейська (Радянська), 4",0,50.54570743741,30.157584224139,no,built,all_sold
571,"ЖК Яблуневий",Київська,NULL,Буча,NULL,NULL,"вул. Центральна, 33в",1,50.542898729364,30.222742639437,no,built,all_sold
572,"Квартал на „Київській“",Київська,NULL,Ірпінь,NULL,NULL,"вул. Київська, 20ж, 20д, 20е",2,50.514904598815,30.227672515869,no,built,all_sold
575,,Київська,NULL,Ірпінь,NULL,NULL,"вул. Лісова, 4д",1,50.50686117810723,30.23699895478785,no,built,all_sold
576,,Київська,NULL,Бориспіль,NULL,NULL,"вул. Нова, 4",1,50.354242819053,30.955734151309,no,built,all_sold
577,,Київська,Бориспільський,Щасливе,NULL,NULL,"вул. Леніна, 1-3",1,50.384257,30.793152,no,built,all_sold
578,,Київська,NULL,Бориспіль,NULL,NULL,"вул. Старокиївська (Ватутіна), 99",1,50.352960476659,30.927935367332,no,built,all_sold
579,,Київська,NULL,Бориспіль,NULL,NULL,"вул. Головатого, 20",1,50.361668862036,30.94054426269,no,built,all_sold
581,,Київська,NULL,Київ,Дарницький,Позняки,"вул. Драгоманова, 6/1",1,50.41608509088248,30.634736252639755,no,built,all_sold
584,,Київська,NULL,Бровари,NULL,NULL,"вул. Сергія Москаленка (Красовського), 8б",1,50.506377142778,30.822019996676,no,built,all_sold
585,"ЖК Джерело",Київська,NULL,Ірпінь,NULL,NULL,"вул. Толстого, 50/52, 50а, 52а, 54, 54а, 56, 56а",1,50.516851265100556,30.21281922369131,no,built,all_sold
588,,Київська,NULL,Ірпінь,NULL,NULL,"вул. Висока, 3",2,50.51723273669319,30.228407765606676,no,built,all_sold
591,"ЖК Фламінго",Київська,NULL,Ірпінь,NULL,NULL,"Гостомельське шосе, 16",1,50.541896344392,30.264386891755,no,built,all_sold
593,"ЖК Почаївський",Київська,NULL,Буча,NULL,NULL,"вул. Чкалова, 4в",0,50.563784534209,30.205292429118,no,built,all_sold
596,"Клубний будинок „Олсія“",Київська,NULL,Буча,NULL,NULL,"вул. Антонія Михайловського, 72г, 72е",4,50.559699923455,30.218754408925,no,built,all_sold
598,"ЖК Новатор",Київська,NULL,Буча,NULL,NULL,"вул. Воїнів Інтернаціоналістів, 16",1,50.560166581749,30.202490335088,no,built,all_sold
599,,Київська,NULL,Буча,NULL,NULL,"вул. Першотравнева, 11",1,50.55497349761,30.194586615484,no,built,all_sold
600,,Київська,NULL,Буча,NULL,NULL,"вул. Пушкінська, 7",1,50.553064424612,30.255587572303,no,built,all_sold
601,"ЖК Гранд Віллас",Київська,NULL,Ворзeль,NULL,NULL,"вул. Чубинського, 1, 3, 5, 6, 8, 10, 12, 14",1,50.53589924379405,30.14102956957438,no,under_construct,frozen
602,"ЖК Green Park",Київська,NULL,Ворзeль,NULL,NULL,"вул. Декабристів, 10, вул. Лісова (Пролетарська), 58",1,50.5495384,30.1503377,no,built,all_sold
603,"ЖК Євроквартал",Київська,NULL,Ворзeль,NULL,NULL,"вул. Ворзельська",1,50.540249566628,30.178711470524,no,built,all_sold
605,"ЖК Ворзель",Київська,NULL,Ворзeль,NULL,NULL,"вул. Кленова (Леніна), 2б",1,50.541222946997,30.170404722545,no,built,all_sold
608,,Київська,NULL,Ірпінь,NULL,NULL,"вул. Рильського, 7",1,50.50763939634,30.239887812175,no,built,all_sold
609,"ЖК Теплий дім",Київська,NULL,Ірпінь,NULL,NULL,"вул. Полтавська, 27а",1,50.52769350014174,30.25027052499354,yes,built,frozen
611,,Київська,NULL,Ірпінь,NULL,NULL,"вул. Кошового, 2в",1,50.488469330376,30.233109533915,no,built,all_sold
612,,Київська,NULL,Васильків,NULL,NULL,"вул. Сонячна, 5",0,50.18836,30.2944392,no,built,all_sold
614,,Київська,Фастівський,Глеваха,NULL,NULL,"вул. Вокзальна, 53",4,50.255193,30.325255,yes,built,all_sold
617,,Київська,NULL,Київ,Деснянський,Троєщина,"вул. Радунська, 2/18",1,50.51872385,30.5957651,no,built,all_sold
618,"ЖК Чубинське",Київська,Бориспільський,Чубинське,NULL,NULL,"вул. Яблунева, 4, 6, 8, 10, 12, вул. Артема, 5, вул. Вербицького, 12, вул. Виноградна, 3",1,50.383084122726835,30.855314206770238,no,built,all_sold
621,"ЖК Солнечный луч",Київська,Обухівський,Козин,NULL,NULL,"вул. Лугова",2,50.235784237185,30.656817555428,no,built,all_sold
623,"ЖК Східна Брама",Київська,NULL,Київ,Дарницький,Бортничі,"вул. Світла, 3",1,50.39824503017543,30.692897123664856,yes,built,contact_unavailable
624,"ЖК Соборний",Київська,NULL,Бровари,NULL,NULL,"вул. Соборна, 8",2,50.51086719749931,30.774866412597557,no,built,all_sold
627,,Київська,NULL,Буча,NULL,NULL,"вул. Богдана Хмельницького, 15-17",2,50.551861140286,30.204310213563,no,built,all_sold
629,"ЖК Diamond Hill",Київська,NULL,Київ,Печерський,Печерськ,"вул. Івана Мазепи, 11б",3,50.44243023000002,30.55060874666667,no,built,all_sold
630,"ЖК Central Park",Київська,NULL,Київ,Печерський,"Нижній Печерськ","вул. Джона Маккейна (Івана Кудрі), 7",2,50.414808118863,30.531068388372,no,built,all_sold
638,,Київська,NULL,Київ,Печерський,"Нижній Печерськ","вул. Євгена Коновальця (Щорса), 36в",2,50.42513841748319,30.532736906884328,no,built,all_sold
639,,Київська,NULL,Київ,Печерський,Печерськ,"Кловський узвіз, 7",3,50.438579702704544,30.538927176967263,no,built,all_sold
641,,Київська,NULL,Ірпінь,NULL,NULL,"вул. Шевченка, 4",1,50.52066230484508,30.24330304004252,no,built,all_sold
642,,Київська,NULL,Київ,Голосіївський,"Нова забудова","вул. Казимира Малевича (Боженка), 44 / вул. Ямська, 35",1,50.42409584858587,30.512589338622913,no,built,all_sold
675,"ЖК Варшавський двір",Київська,NULL,Буча,NULL,NULL,"вул. Богдана Хмельницького, 19",0,50.552278695356364,30.20356402908322,no,built,all_sold
734,,Київська,NULL,Київ,Дарницький,Осокорки,"вул. Мишуги, 12",1,50.39536647550354,30.63626715622284,no,built,all_sold
735,"ЖК Липська вежа",Київська,NULL,Київ,Печерський,Липки,"вул. Інститутська, 18",3,50.445353573933,30.53198806971,no,built,all_sold
736,,Київська,NULL,Київ,Деснянський,Троєщина,"вул. Миколи Закревського, 93а",1,50.529760062499996,30.62768294583334,no,built,all_sold
738,,Київська,NULL,Київ,Дарницький,Позняки,"вул. Урлівська, 23в",0,50.409635483333325,30.61257468333333,no,built,all_sold
741,"ЖК Спарта",Київська,NULL,Ірпінь,NULL,NULL,"вул. Київська, 22ж, 22з, 22е",1,50.5149456,30.2288357,no,built,all_sold
743,,Київська,NULL,Ірпінь,NULL,NULL,"вул. Університетська (Карла Маркса), 16",0,50.515459569314,30.230552852154,no,built,all_sold
745,,Київська,NULL,Ірпінь,NULL,NULL,"вул. Лермонтова, 6д",0,50.512037286624306,30.222658524289727,no,built,all_sold
746,"ЖК на Кондратюка",Київська,NULL,Київ,Оболонський,Мінський,"вул. Юрія Кондратюка, 3, 5, 7",2,50.52549425199278,30.46031506733084,no,built,contact_unavailable
747,"Зелений острів",Київська,NULL,Київ,Шевченківський,Сирець,"вул. Танкова, 1",2,50.463308366506254,30.43262158272545,no,built,all_sold
750,"ЖК Ягода",Київська,NULL,Гостомель,NULL,NULL,"Бучанське шосе, 14а",1,50.56515147394522,30.261625656858087,no,built,all_sold
754,"ЖК Нові Черемушки",Одеська,NULL,Одеса,Хаджибейський,Черемушки,"вул. Маршала Малиновського, 53-55",1,46.442148752416664,30.712706577032804,no,under_construct,available
757,,Одеська,NULL,Одеса,Київський,Таїрова,"просп. Академіка Глушка, 32а",1,46.398931716159,30.712351465936,no,built,all_sold
759,,Одеська,NULL,Одеса,Приморський,"Малий Фонтан","Французький бульвар, 22/30",2,46.453923753613,30.757668949664,no,built,all_sold
760,,Одеська,NULL,Одеса,Хаджибейський,Курсаки,"вул. Бреуса, 63",1,46.451049,30.709518000000003,no,built,all_sold
761,,Одеська,NULL,Одеса,Приморський,Молдаванка,"вул. Ковалевського (Пішонівська), 37",1,46.484874,30.712508999999955,no,built,all_sold
762,"ЖК Романівський",Одеська,NULL,Одеса,Пересипський,Слобідка,"вул. Проценка, 50",1,46.484632860000005,30.684857360000002,no,built,all_sold
763,"Морська симфонія",Одеська,NULL,Одеса,Приморський,Аркадія,"пров. Морехідний, 2/2",3,46.422815830711,30.767208497084,no,built,available
765,"ЖК Фонтанка сіті",Одеська,NULL,Фонтанка,NULL,NULL,"вул. Центральна, 3",1,46.56962263539451,30.867526531219482,no,built,all_sold
766,"ЖК Фонтан",Одеська,NULL,Одеса,Київський,"Великий фонтан","вул. Макаренка, 2а",1,46.40053878571428,30.742086514285717,no,built,all_sold
767,"ЖК Сігурд Холл",Одеська,NULL,Одеса,Приморський,Аркадія,"Французький бульвар, 54/23",0,46.441047,30.765814999999975,no,built,all_sold
771,"ЖК Воздвиженка",Київська,NULL,Київ,Подільський,Поділ,"вул. Воздвиженська, 9-19, 22, 48, 50, вул. Дігтярна, 5, вул. Кожум'яцька, 12в, 14б, 14в, 16б, 20в, 20г",2,50.460397044967,30.509653235971,no,built,available
776,,Київська,NULL,Київ,Святошинський,Нивки,"вул. Авіаційна (Туполєва), 17к",2,50.48206908822032,30.389287644180282,no,built,all_sold
777,,Київська,NULL,Київ,Подільський,"Мостицький масив","вул. Новомостицька, 12а",2,50.500596039296,30.44198342599,no,built,all_sold
778,,Київська,Бучанський,Вишневе,NULL,NULL,"вул. Козацька, 6",1,50.384728,30.382406,no,built,all_sold
782,"ЖК Барвінок",Київська,NULL,Київ,Дніпровський,Березняки,"вул. Шумського / вул. Березняківська",2,50.42266943295931,30.604813309539804,no,built,all_sold
783,,Київська,NULL,Київ,Печерський,Печерськ,"бул. Лесі Українки, 7а",3,50.43412828867975,30.53166562167356,no,built,all_sold
787,"ЖК Академмістечко",Одеська,NULL,Одеса,Приморський,"Середній Фонтан","вул. Маршала Говорова, 10в, 10г",2,46.445593490909,30.745706454545,no,built,all_sold
788,"ЖК Александровский",Одеська,NULL,Одеса,Приморський,Центр,"вул. Пантелеймонівська",1,46.47037937529665,30.733367800712585,no,built,all_sold
789,"ЖК Крит",Одеська,NULL,Одеса,Приморський,Відрада,"Французький бульвар, 13а",3,46.464826950869,30.754414824137,no,built,all_sold
790,"ЖК Нова Одеса",Одеська,NULL,Хлібодарське,NULL,NULL,,1,46.48389019439315,30.596873424947262,no,built,all_sold
791,"ЖК Озерки",Одеська,NULL,"Нова Долина",NULL,NULL,"вул. Крупської, 2/8, 2/8а, 2/8б, 2/8в, 2/8г, 2/8д",1,46.40151281397903,30.587803066131563,no,built,contact_unavailable
792,"ЖК Райдужний",Одеська,NULL,Лиманка,NULL,NULL,"масив Райдужний, 1",1,46.40251520870624,30.705173065805866,no,built,all_sold
794,"ЖК Одиссей СМУ-11",Одеська,NULL,Одеса,Київський,Дмитриївка,"Люстдорфська дорога, 55",1,46.42394600825533,30.72796990997813,no,built,all_sold
801,"Клубний будинок „Золотий лев“",Київська,NULL,Київ,Дніпровський,"Стара Дарниця","пров. Краснокутський, 16",4,50.43407499408928,30.637884737434383,no,built,all_sold
802,"Клубний будинок „Арт Холл“",Київська,NULL,Київ,Шевченківський,Центр,"вул. Бульварно-Кудрявська (Воровського), 21",3,50.45227155454235,30.501350769773126,no,built,all_sold
804,"ЖК Дніпровські вежі",Київська,NULL,Київ,Деснянський,Троєщина,"просп. Романа Шухевича (Генерала Ватутіна), 9",0,50.49779874024925,30.579797996032767,yes,frozen,frozen
807,"ЖК Світлиця",Київська,Бучанський,Немішаєве,NULL,NULL,"вул. Гагаріна, 2, 4, 6, 8, 10",1,50.56892169669492,30.09368226863444,no,built,all_sold
809,"ЖК Ірпінь-Пасаж",Київська,NULL,Ірпінь,NULL,NULL,"вул. Чехова, 4",0,50.510589889585,30.235078682035,no,built,all_sold
810,,Київська,NULL,Ірпінь,NULL,NULL,"вул. Київська, 45в",0,50.5132726631959,30.229651780426,no,built,all_sold
811,,Київська,NULL,Ірпінь,NULL,NULL,"вул. Вериківського (Піонерська), 23",0,50.512498536806,30.239754979388,no,built,all_sold
812,,Київська,NULL,Ірпінь,NULL,NULL,"вул. Чехова, 24",0,50.508802294631,30.220536186251,no,built,all_sold
814,"ЖК Київський",Київська,NULL,Ірпінь,NULL,NULL,"вул. Університетська (Карла Маркса), 2/1",4,50.507869174999996,30.23391355,no,built,frozen
815,,Київська,NULL,Ірпінь,NULL,NULL,"вул. 10 Лінія, 4а",0,50.539435897279,30.26575566242,no,built,all_sold
816,,Київська,NULL,Ірпінь,NULL,NULL,"вул. Лісова, 6 (е1, е2, г, д)",0,50.506417962338,30.236430667366,no,built,all_sold
817,,Київська,NULL,Ірпінь,NULL,NULL,"вул. Чехова, 1",0,50.509722177026,30.236163930059,no,built,all_sold
818,,Київська,NULL,Ірпінь,NULL,NULL,"вул. Університетська (Карла Маркса), 2/1-к",1,50.509007656171,30.232921288559,no,built,all_sold
820,,Київська,NULL,Ірпінь,NULL,NULL,"вул. Мечникова, 24",1,50.5205432,30.2311686,no,built,all_sold
822,"ЖК Новодарницький",Київська,NULL,Київ,Дарницький,"Нова Дарниця","вул. Юрія Пасхаліна (Ілліча), 17",1,50.42551288164964,30.65182427434387,no,built,all_sold
823,,Київська,NULL,Ірпінь,NULL,NULL,"вул. Достоєвського, 39",0,50.506032811974,30.244749224572,no,built,all_sold
824,,Київська,NULL,Ірпінь,NULL,NULL,"вул. Виговського (Суворова), 5а",1,50.513452273902,30.225179225127,no,built,all_sold
825,,Київська,NULL,Ірпінь,NULL,NULL,"вул. Полтавська, 31к",1,50.52898253406145,30.251006791368127,no,built,all_sold
826,,Київська,NULL,Ірпінь,NULL,NULL,"вул. Варшавська (Радянська), 95",1,50.5379141,30.2649994,no,built,all_sold
827,,Київська,NULL,Ірпінь,NULL,NULL,"вул. Чехова, 14д",1,50.509608582143,30.232822673715,no,built,all_sold
831,,Київська,NULL,Ірпінь,NULL,NULL,"вул. Мінеральна, 37",1,50.528633147316,30.230536219172,no,built,all_sold
833,,Київська,NULL,Ірпінь,NULL,NULL,"вул. Миру, 3б",0,50.5323358,30.2373869,no,built,all_sold
834,"ЖК Жемчужина города",Київська,NULL,Ірпінь,NULL,NULL,"вул. Чехова, 4м, 4н",2,50.51152508327785,30.234866446418778,no,built,all_sold
835,,Київська,NULL,Київ,Подільський,"Біличе поле","вул. Белицька, 20",1,50.4944362525,30.4456474675,no,built,all_sold
836,"ЖК Парк Стоун",Київська,NULL,Київ,Оболонський,Оболонь,"просп. Володимира Івасюка (Героїв Сталінграда), 2д",2,50.489932574199685,30.528300021013077,no,built,all_sold
837,"ЖК Петрівський квартал",Київська,Бучанський,Святопетрівське,NULL,NULL,"вул. Богдана Хмельницького, бул. Лесі Українки, бул. Тараса Шевченка, вул. Соборна",4,50.397046028662,30.320023130625,yes,built,contact_unavailable
839,"ЖК Празький квартал 2",Київська,Бучанський,"Петропавлівська Борщагівка",NULL,NULL,"вул. Садова, 51",1,50.424237639090386,30.337648169899527,no,under_construct,all_sold
840,"ЖК Родинний затишок",Київська,NULL,Київ,Дніпровський,Соцмісто,"вул. Лохвицька",1,50.4378252090321,30.63436889240967,yes,built,contact_unavailable
842,,Київська,NULL,Київ,Дарницький,Позняки,"просп. Григоренко, 12-14",1,50.412407955733,30.623719263822,no,built,all_sold
844,,Київська,NULL,Київ,Дарницький,Позняки,"вул. Урлівська (будм-к. 10, Позняки-2)",1,50.407459401855,30.62098743394,no,built,all_sold
845,,Київська,NULL,Київ,Подільський,Куренівка,"вул. Петропавлівська, 50, 50б",2,50.483762066666664,30.45874571666667,no,built,all_sold
846,"ЖК Златоустівський",Київська,NULL,Київ,Шевченківський,Центр,"вул. Чорновола, 27, 29а, вул. Полтавська, 10, вул. Дмитрівська, 75, вул. Златоустівська, 55",2,50.454852976701,30.485709445845,no,built,all_sold
847,,Київська,NULL,Київ,Солом'янський,Шулявка,"вул. Борщагівська, 152а, 152в",2,50.446133254177234,30.445984347221295,no,built,all_sold
849,"ЖК Нагірний",Київська,NULL,Київ,Шевченківський,Татарка,"вул. Нагірна, 15",2,50.475031324999996,30.4810323,no,built,all_sold
850,,Київська,NULL,Київ,Шевченківський,Лук'янівка,"вул. Коперника, 11",2,50.459016729585,30.483213628687,no,built,all_sold
851,,Київська,NULL,Бровари,NULL,NULL,"вул. Березова (Кірова), 28",1,50.499335741925,30.778660070942,no,built,all_sold
856,"ЖК Бульвар Фонтанів",Київська,NULL,Київ,Печерський,"Нижній Печерськ","вул. Іоанна Павла ІІ (Патріса Лумумби), 6/1",3,50.419721678774,30.530944370931,no,built,all_sold
857,"ЖК Кришталеві джерела",Київська,NULL,Київ,Голосіївський,Феофанія,"вул. Метрологічна, вул. Академіка Заболотного, 148",4,50.34821077594,30.478417728292,no,built,available
858,"ЖК Софія Сіті",Київська,Бучанський,"Софіївська Борщагівка",NULL,NULL,"вул. Лесі Українки, вул. Івана Франка, вул. Боголюбова, вул. Миру",1,50.39971646007,30.382892804753,no,built,available
859,"ЖК Львівський",Київська,Бучанський,"Петропавлівська Борщагівка",NULL,NULL,"вул. Львівська, 1",1,50.43560255681013,30.318579711019993,no,built,all_sold
860,"ЖК Затишний дім",Київська,NULL,Київ,Солом'янський,Шулявка,"вул. Гетьмана, 30б",2,50.44511673125,30.440345962500004,no,built,all_sold
862,,Київська,NULL,Київ,Голосіївський,"Нова забудова","вул. Антоновича (Горького), 103",2,50.42361925,30.516651975000002,no,built,all_sold
866,"ЖК Княжий",Львівська,NULL,Львів,Залізничний,Привокзальна,"пл. Князя Святослава, 5",2,49.84368627222223,24.008465977777778,no,built,all_sold
867,"ЖК Західні ворота",Львівська,NULL,Львів,Шевченківський,Фридрихівка,"вул. Шевченка, 134а",2,49.852914043076,23.991186861433,no,built,all_sold
873,,Київська,NULL,Ірпінь,NULL,NULL,"вул. Пушкінська, 62е",1,50.510611157144,30.222217610099,no,built,all_sold
874,"ЖК Грюнвальд",Київська,NULL,Київ,Святошинський,Новобіличі,"вул. Клавдіївська, 40а, 40б, 40в, 40г, 40д, 40ж, 40е",1,50.478244675,30.33913505,no,built,contact_unavailable
875,,Київська,NULL,Київ,Дарницький,"Нова Дарниця","вул. Поліська, 28б",0,50.42147835,30.6827546,no,built,all_sold
877,"ЖК Суворівський",Одеська,NULL,Крижанівка,NULL,NULL,"вул. Генерала Бочарова, 54, 54а, 54б, 54в, 54г, 54д",1,46.583249425,30.8115702,no,built,all_sold
880,,Львівська,NULL,Львів,Залізничний,Привокзальна,"вул. Бортнянського, 50",1,49.846200630081,23.998994848445,no,built,all_sold
881,"ЖК Старе Місто",Львівська,NULL,Львів,Галицький,Центр,"вул. Маєра Балабана, 12",2,49.846652361755,24.02256294616,no,built,all_sold
884,,Львівська,NULL,Львів,Галицький,"Новий світ","вул. Кольберга, 3а",1,49.833726370657,24.016802544214,no,built,all_sold
885,,Львівська,NULL,Львів,Залізничний,Сріблястий,"вул. Любінська, 160",1,49.81947851701947,23.964210476196286,no,built,all_sold
886,,Львівська,NULL,Львів,Личаківський,Майорівка,"вул. Майорівка, 9",1,49.82447851911559,24.084952514709844,no,built,all_sold
887,,Львівська,NULL,Львів,Галицький,"Стрийський парк","вул. Рутковича, 11а",2,49.827863244607336,24.033054867759347,no,built,all_sold
888,,Львівська,NULL,Львів,Галицький,"Стрийський парк","вул. Стуса Василя, 37",1,49.81956495066096,24.041750533204663,no,built,all_sold
889,,Львівська,NULL,Львів,Сихівський,"Новий Львів","вул. Тернопільська, 15б",1,49.8142841,24.0386523,no,built,all_sold
892,"ЖК Зелена тераса",Львівська,NULL,Львів,Галицький,"Стрийський парк","вул. Кубанська, 8",3,49.823997,24.0386241,no,built,all_sold
894,,Львівська,NULL,Львів,Личаківський,Личаків,"вул. Мучна, 23",1,49.838688,24.061531999999943,no,built,all_sold
896,,Львівська,NULL,Львів,Залізничний,Привокзальна,"вул. Залізнична, 7",1,49.845260447114,23.99710230924,no,built,all_sold
897,,Львівська,NULL,Львів,Залізничний,Привокзальна,"вул. Братів Міхновських",1,49.839843386415,24.002967481165,no,built,all_sold
899,,Львівська,NULL,Львів,Залізничний,Скнилівок,"вул. Чорнобаївська (Чуваська), 29",1,49.8194468,23.9693919,no,built,all_sold
902,,Львівська,NULL,Львів,Личаківський,Майорівка,"вул. Таджикська, 1",3,49.83096099999999,24.07039599999996,no,built,all_sold
907,"ЖК Бородино",Запорізька,NULL,Запоріжжя,Дніпровський,Бородинський,"вул. Медична, 7",3,47.89322619864725,35.07905216887593,no,built,all_sold
908,"ЖК Ренесанс",Запорізька,NULL,Запоріжжя,Дніпровський,"Великий Луг","вул. Розваги, 27",3,47.91222075,35.086374425,no,built,available
913,"ЖК Банківський",Житомирська,NULL,Житомир,Богунський,Кокарчанка,"вул. Перемоги, 99",1,50.272103158192,28.647325392204,no,built,all_sold
915,"ЖК Прем'єр Холл",Житомирська,NULL,Житомир,Богунський,Кокарчанка,"вул. Перемоги, 53",2,50.26556868351552,28.6480784509331,no,built,all_sold
921,,Київська,NULL,Київ,Святошинський,Святошино,"просп. Берестейський (Перемоги), 115а",0,50.45518050083278,30.36538841667811,no,frozen,frozen
922,,Київська,NULL,Київ,Дарницький,Позняки,"вул. Олени Пчілки, 5",1,50.41584019844032,30.6311967332824,no,built,all_sold
927,"ЖК Park Hills (Молодіжна ініціатива)",Київська,NULL,Київ,Шевченківський,Сирець,"вул. Степана Руданського, 9а",4,50.468860192387,30.430095726903,no,under_construct,available
937,,Київська,NULL,Київ,Дарницький,Позняки,"вул. Олени Пчілки, 6",1,50.41686109166667,30.631259195833334,no,built,all_sold
939,,Київська,NULL,Київ,Печерський,"Черепанова гора","пров. Лабораторний, 6",0,50.426284807925,30.524850558493,no,built,all_sold
940,,Київська,NULL,Київ,Деснянський,Троєщина,"вул. Костянтина Данькевича, вул. Олександри Екстер (Марини Цвєтаєвої)",0,50.522519786569,30.615261792755,no,built,all_sold
941,,Київська,NULL,Київ,Деснянський,Троєщина,"вул. Костянтина Данькевича 10-16, вул. Олександри Екстер (Марини Цвєтаєвої), 11-12",0,50.521743103346,30.613180734217,no,built,all_sold
946,,Івано-Франківська,NULL,Івано-Франківськ,NULL,Центр,"вул. Тичини / вул. Довга",4,48.926826816618,24.70061207455,no,built,all_sold
948,,Івано-Франківська,NULL,Івано-Франківськ,NULL,Пасічна,"вул. Галицька, 118в",1,48.944086325452,24.696650481218,no,built,all_sold
949,,Івано-Франківська,NULL,Івано-Франківськ,NULL,Кант,"вул. Вишневського, 1а",1,48.924464089785,24.695975552525,no,built,all_sold
964,"ЖК Симфонія",Київська,NULL,Київ,Голосіївський,Мишоловка,"просп. Науки, 66-70",1,50.37755676992911,30.53628151918788,yes,frozen,contact_unavailable
968,"ЖК Янтарний",Київська,NULL,Ірпінь,NULL,NULL,"вул. Соборна, 1г",4,50.50392541666667,30.243452766666667,yes,built,frozen
969,,Київська,NULL,Ірпінь,NULL,NULL,"вул. Пушкінська, 43",0,50.510254,30.222336,no,built,all_sold
970,,Київська,NULL,Ірпінь,NULL,NULL,"вул. Чехова, 6 (6-В, 6-З)",0,50.511167593516,30.233774383024,no,built,all_sold
971,,Київська,NULL,Ірпінь,NULL,NULL,"вул. Лермонтова, 6",0,50.510987152284,30.222032096006,no,built,all_sold
974,"ЖК Поліський",Київська,NULL,Київ,Дарницький,"Нова Дарниця","вул. Миколи Хвильового, 1",1,50.417607228517,30.680842269212,no,built,all_sold
986,,Київська,NULL,Київ,Солом'янський,Чоколівка,"вул. Васильченка, 3/24",0,50.42501194492819,30.446795949737506,no,built,all_sold
988,,Київська,NULL,Київ,Святошинський,Святошино,"вул. Львівська, 22, 22а",0,50.45491945,30.37466125,no,built,all_sold
990,"ЖК Вишнева оселя (вул. Вишнева)",Київська,Бучанський,Крюківщина,NULL,NULL,"вул. Вишнева, 27",1,50.37856883470713,30.370555529370904,no,built,all_sold
992,"ЖК Dobre Misto",Київська,Бучанський,Вишневе,NULL,NULL,"вул. Піонерська, 9, 9а, 14, 18, 20, 22, 24, 26, 28, 28а, 30, вул. Першотравнева, 25, вул. Наливайка, 9, 13, вул. Б. Хмельницького, 52, 54, 63, 65, вул. Хвильового, 5, 6, 7, 8, 9, 10, 13, 14, 15, 16, 17/30, 18, вул. Єдності, 2, 5",4,50.381879509175,30.384189639203,no,under_construct,available
993,"ЖК Бірюза",Київська,Обухівський,Підгірці,NULL,NULL,"вул. Озерна, 2, 3, 8, 10, 12",2,50.25518947777778,30.557916455555553,no,built,available
994,,Вінницька,NULL,Вінниця,NULL,Масложир,"вул. Іванова, 4б",1,49.229878866665,28.521215471816,no,built,all_sold
996,"Мікрорайон „Поділля“",Вінницька,NULL,Вінниця,NULL,Поділля,"вул. Академіка Ющенка, 5, вул. Анатолія Бортняка, 14",4,49.21807667534247,28.44349033150685,no,built,all_sold
997,"Мікрорайон „Академічний“",Вінницька,NULL,Вінниця,NULL,Академічний,"вул. Миколаївська (р-н вул. Пирогова)",4,49.204820769788,28.421502465887,no,under_construct,available
998,,Вінницька,NULL,Вінниця,NULL,Садки,"вул. Льва Толстого, 9",1,49.2290923,28.460746900000004,no,built,all_sold
999,,Вінницька,NULL,Вінниця,NULL,"Старе Місто","вул. Якова Шепеля (Примакова), 23б",1,49.208531568224,28.487505720364,no,built,all_sold
1007,,Київська,NULL,Київ,Дарницький,Позняки,"вул. Урлівська, 20",1,50.40835756086957,30.62019343695652,no,built,all_sold
1012,"ЖК Татарський",Київська,NULL,Київ,Шевченківський,Татарка,"вул. Отто Шмідта, 10ж",3,50.47020328132706,30.491118747740984,no,built,all_sold
1013,"ЖК Стольный град",Київська,NULL,Київ,Подільський,"Село Шевченка","вул. Лисянська, 9",1,50.517492098356,30.439077091577,no,built,all_sold
1016,,Київська,Бучанський,Крюківщина,NULL,NULL,"вул. Червоноармійська, 14",0,50.3796296,30.3801883,no,built,all_sold
1017,"ЖК Молодіжне містечко",Київська,Бучанський,Крюківщина,NULL,NULL,"вул. Заміська, 2-4, вул. Одеська, 24-42, вул. Подільська, 1-8",1,50.369197046196376,30.384438056498766,no,under_construct,available
1018,,Київська,Бучанський,Крюківщина,NULL,NULL,"вул. Балукова, 2б",0,50.374475640082,30.372848592486,no,built,all_sold
1020,"ЖК Щасливий",Київська,Бучанський,"Софіївська Борщагівка",NULL,NULL,"вул. Волошкова, 74, вул. Щаслива, 44, 55, 50, 61",4,50.39908803076831,30.390775927036366,no,built,all_sold
1021,,Київська,Броварський,Баришівка,NULL,NULL,"вул. Жовтнева, 55",0,50.360388966483,31.32340952754,no,built,all_sold
1024,"ЖК Нова Хвиля",Київська,NULL,Київ,Дніпровський,"Стара Дарниця","вул. Харківське шосе, 15а",1,50.4346599875,30.6347442625,yes,built,contact_unavailable
1025,"ЖК Куренівський",Київська,NULL,Київ,Подільський,Куренівка,"вул. Рилєєва, 25",1,50.4851473675,30.462825312071,no,built,all_sold
1027,"ЖК Молодіжний",Київська,Бучанський,"Софіївська Борщагівка",NULL,NULL,"пров. Шкільний, 2б",1,50.411685880923,30.362789615568,no,built,all_sold
1028,,Київська,Бучанський,"Софіївська Борщагівка",NULL,NULL,"вул. Шкільна, 2а",0,50.411443941441,30.362991244658,no,built,all_sold
1029,,Київська,Бучанський,"Софіївська Борщагівка",NULL,NULL,"вул. Соборна (Леніна), 28",0,50.413766248264,30.369896225218,no,built,all_sold
1032,,Волинська,NULL,Луцьк,NULL,"55-й мікрорайон","вул. Гончара, 3",1,50.754316588318,25.357879570166,no,built,all_sold
1035,"ЖК Оберіг",Волинська,NULL,Луцьк,NULL,Центр,"вул. Арцеулова, 6, 10, 12",4,50.759719782966386,25.34112081862986,no,built,available
1039,,Волинська,NULL,Луцьк,NULL,Центр,"вул. Дубнівська, 15",0,50.741562416909,25.359294003747,no,built,all_sold
1040,,Волинська,NULL,Струмівка,NULL,NULL,"вул. Алмазова, 8",0,50.736693486307,25.383776289116,no,built,all_sold
1046,"ЖК Віконт",Київська,NULL,Київ,Шевченківський,Татарка,"вул. Соляна, 70",1,50.46647278306191,30.49023410185222,no,built,all_sold
1048,"ЖК Zverinetskiy",Київська,NULL,Київ,Печерський,Звіринець,"вул. Звіринецька, 47",3,50.408204,30.554759400000002,no,built,all_sold
1049,,Київська,NULL,Київ,Шевченківський,"Солдатська слобідка","вул. Дмитрівська, 66а",0,50.45313444444444,30.488834355555557,no,built,all_sold
1050,"ЖК Стародарницький",Київська,NULL,Київ,Дніпровський,"Стара Дарниця","вул. Лохвицька, 1-2",1,50.43345238869665,30.63470593254088,no,built,all_sold
1051,,Харківська,NULL,Харків,Київський,Центр,"вул. Чернишевська, 7",3,49.996398002512,36.235978687182,no,built,all_sold
1052,"ЖК Аксіома",Харківська,NULL,Харків,Шевченківський,Шатилівка,"просп. Науки (Леніна), 9",2,50.014612226454,36.224937457591,no,built,all_sold
1054,,Харківська,NULL,Харків,Індустріальний,ХТЗ,"просп. Олександрівський (Косіора), 69е",1,49.948274073234,36.358861033974,no,built,all_sold
1055,,Харківська,NULL,Харків,Індустріальний,ХТЗ,"просп. Архітектора Альошина (Орджонікідзе), 5",1,49.94906567403087,36.37523938888546,no,built,all_sold
1059,"ЖК Островського, 40",Київська,NULL,Київ,Солом'янський,Солом'янка,"вул. Патріарха Мстислава Скрипника (Островського), 40",2,50.4343604,30.4809712,no,built,all_sold
1060,"ЖК Тихорецький",Київська,NULL,Київ,Голосіївський,Ширма,"вул. Семена Палія (Тихорецька), 30/7",2,50.40036569629862,30.496872772090114,no,built,all_sold
1061,,Харківська,NULL,Харків,Шевченківський,"Павлово Поле","вул. Балакірєва, 9",0,50.037073163558,36.244360816235,no,frozen,frozen
1064,"ЖК Академквартал",Київська,NULL,Ірпінь,NULL,NULL,"вул. Мечникова, 112-114",1,50.518940539099845,30.21217730367426,no,built,all_sold
1066,"ЖК Славгородський",Київська,NULL,Київ,Дарницький,"Нова Дарниця","вул. Дениса Антіпова (Славгородська), 25",1,50.420874418723,30.659715208122,no,frozen,frozen
1069,,Київська,NULL,Ірпінь,NULL,NULL,"вул. Полтавська, 45",0,50.532377,30.2541888,no,built,all_sold
1071,,Київська,NULL,Київ,Дніпровський,Райдужний,"вул. Райдужна, 54",1,50.477249975,30.588944675,no,built,all_sold
1074,,Київська,NULL,Ірпінь,NULL,NULL,"вул. Українська, 85в",2,50.52897870022,30.230312206442,no,built,all_sold
1075,,Київська,NULL,Київ,Дарницький,Позняки,"вул. Ахматової, 34",4,50.408037292668325,30.621217457672106,no,built,all_sold
1076,"ЖК Нахимовський",Київська,NULL,Ірпінь,NULL,NULL,"вул. Полтавська, 62а, 62г, вул. Сагайдачного (Нахімова), 23а",1,50.531401403366,30.25446312509,no,built,all_sold
1077,,Київська,NULL,Ірпінь,NULL,NULL,"вул. Лісова, 46",1,50.506497831381424,30.235528349876404,no,built,all_sold
1079,"ЖК Будинок на Мечникова",Дніпропетровська,NULL,Дніпро,Шевченківський,Центр,"вул. Мечникова, 5",2,48.46533742376623,35.03828636370599,yes,built,all_sold
1080,"ЖК Арт Хаус",Київська,NULL,Київ,Солом'янський,"Олександрівська Слобідка","вул. Лисичанська, 29",2,50.412302,30.495374999999967,no,built,all_sold
1082,"ЖК Відпочинок",Київська,NULL,Київ,Святошинський,Святошино,"вул. Петрицького, 13, 15, 15а, 17, 17а, 19, 19а, 21, 21а, 23, 23а",1,50.446330620000005,30.381231279999998,no,built,available
1083,"ЖК Богатирський",Київська,NULL,Київ,Оболонський,Оболонь,"вул. Богатирська, 6а",4,50.51908420785687,30.484814832389137,no,built,all_sold
1086,"ЖК Таврійський",Херсонська,NULL,Херсон,Суворовський,Таврійський,"просп. Адмірала Сенявіна, 152",1,46.667298258261,32.624739715136,no,built,all_sold
1087,,Херсонська,NULL,Херсон,Дніпровський,ХБК,"вул. Залаегерсег, 29а",1,46.667524345319,32.642672532531,no,built,all_sold
1089,,Херсонська,NULL,Херсон,Корабельний,Корабел,"вул. Патона, 25",1,46.62404332403647,32.57917410694063,no,built,contact_unavailable
1090,,Херсонська,NULL,Херсон,Дніпровський,ХБК,"вул. Перекопська, 171а",1,46.66175443097407,32.65319502912462,no,built,all_sold
1092,"ЖК Адмірал",Миколаївська,NULL,Миколаїв,Центральний,Центр,"вул. Адміральська, 31б",2,46.973822087536,31.997024680978,no,built,available
1093,,Миколаївська,NULL,Миколаїв,Заводський,Центр,"вул. Водопровідна, 34",1,46.967045074152,31.967535398674,no,built,all_sold
1095,"ЖК Никола-Град",Миколаївська,NULL,Миколаїв,Заводський,Слобідка,"вул. 6-а Слобідська, 81",4,46.959883091420906,32.02039168216288,no,under_construct,available
1096,,Закарпатська,NULL,Ужгород,NULL,Центр,"вул. Кармелюка, 12",0,48.62532330142186,22.307770195517,no,built,all_sold
1097,"ЖК Нова Рафанда",Закарпатська,NULL,Ужгород,NULL,Боздош,"вул. О. Хіри, 1",4,48.61733252603877,22.26489624939859,no,built,all_sold
1101,,Полтавська,NULL,Полтава,Шевченківський,Огнівка,"бул. Боровиковського, 2/2",1,49.57798874258515,34.521231155433725,no,built,all_sold
1102,,Полтавська,NULL,Полтава,Київський,Центр,"вул. Артема, 21",1,49.592622353904,34.533545831925,no,built,all_sold
1103,,Хмельницька,NULL,Хмельницький,NULL,Виставка,"вул. Свободи, 8в",1,49.437495529476,26.997600933438,no,built,all_sold
1104,"ЖК Золота підкова",Хмельницька,NULL,Хмельницький,NULL,Озерна,"вул. Панаса Мирного, 18",1,49.45180455699,27.011139148028,no,built,all_sold
1105,,Хмельницька,NULL,Хмельницький,NULL,Дубово,"вул. Ранкова (Раскової), 2а",1,49.407062131219,26.982881778689,no,built,all_sold
1107,"ЖК Евромісто",Київська,Бучанський,Крюківщина,NULL,NULL,"вул. Жулянська, 1а, 1б, 1в, 1г, 1д, вул. Європейська, 2а, 2б, 2в, 2г, вул. Жулянська, 2а, 2б",4,50.376237656095,30.380305722356,no,under_construct,available
1108,,Київська,NULL,Київ,Голосіївський,"Саперна Слобідка","вул. Саперно-Слобідська, 24",1,50.402116705000005,30.537892845000005,no,built,all_sold
1109,"Клубний будинок Gelios",Київська,NULL,Київ,Голосіївський,Голосіїв,"пров. Задорожний, 6а",2,50.395346700000005,30.50573515,no,built,all_sold
1110,"ЖК Respublika",Київська,NULL,Київ,Голосіївський,Теремки,"Кільцева дорога, 1",4,50.371376128448,30.450817661222,no,under_construct,available
1111,,Київська,NULL,Київ,Деснянський,Троєщина,"вул. Милославська, 8, 12",0,50.534076373139335,30.602369199805025,no,built,all_sold
1112,"ЖК Country House",Київська,Бориспільський,Гора,NULL,NULL,"вул. Центральна, 30г",4,50.3613899659,30.848202724,no,built,all_sold
1113,"ЖК Академіка Глушкова, 92б",Київська,NULL,Київ,Голосіївський,Теремки-1,"просп. Академіка Глушкова, 92б",1,50.37084795782005,30.463750082999468,no,built,all_sold
1115,,Київська,NULL,Київ,Деснянський,Троєщина,"вул. Лісківська, 7",1,50.523037510846,30.603152085096,no,built,all_sold
1116,"ЖК Возз'єднання, 21в",Київська,NULL,Київ,Дніпровський,Русанівка,"просп. Соборності (Возз'єднання), 21в",4,50.439748607845424,30.609668882278452,no,built,all_sold
1117,,Київська,NULL,Київ,Солом'янський,Первомайський,"вул. Ушинського, 14б",1,50.43321279806454,30.44805100864423,no,built,all_sold
1118,"ЖК Квартал Тарасівський",Київська,Фастівський,Тарасівка,NULL,NULL,"вул. Братів Чмилів",1,50.33744182410236,30.304122660309076,no,built,frozen
1119,,Київська,NULL,Київ,Дарницький,"Нова Дарниця","вул. Ревуцького, 7в",1,50.420855425,30.64548025,no,built,all_sold
1121,"ЖК Лісовий",Київська,NULL,Київ,Голосіївський,Конча-Заспа,"вул. Генерала Матикіна, 16",4,50.301088275000005,30.573404599999996,no,built,all_sold
1122,"ЖК Яскравий",Київська,NULL,Київ,Оболонський,Мінський,"вул. Сім'ї Кульженків (Петра Дегтяренка), 31а, 33, 35, вул. Петра Калнишевського (Майорова), 8",4,50.521186779802456,30.467031318694353,no,built,all_sold
1125,,Рівненська,NULL,Рівне,NULL,Центр,"вул. Шкільна, 69",1,50.619636,26.241220999999996,no,built,all_sold
1126,,Рівненська,NULL,Рівне,NULL,Мототрек,"вул. Відінська, 23а",0,50.608915499995,26.279652826572,no,built,all_sold
1127,,Рівненська,NULL,Рівне,NULL,Північний,"вул. Черняка, 26-28",1,50.637806461233616,26.26854368095087,no,built,all_sold
1128,"ЖК Lake City",Київська,NULL,Гостомель,NULL,NULL,"вул. Свято-Покровська, 73б",1,50.573232758653,30.263734922302,no,built,all_sold
1134,,Тернопільська,NULL,Тернопіль,NULL,Канада,"вул. Коновальця, 11",1,49.55554353091987,25.623922946557627,no,built,all_sold
1135,,Тернопільська,NULL,Тернопіль,NULL,Північний,"вул. Тарнавського, 19",1,49.56488486884932,25.6321120262146,no,built,all_sold
1136,,Тернопільська,NULL,Тернопіль,NULL,Промисловий,"вул. Лозовецька, 8",1,49.562611699015,25.605450035177,no,built,all_sold
1137,,Тернопільська,NULL,Тернопіль,NULL,Канада,"вул. Коновальця, 15",1,49.55638274021063,25.623221104334,no,built,all_sold
1142,"ЖК Фортеця Люкс",Чернівецька,NULL,Чернівці,NULL,Сторожинецька,"вул. Василя Аксеніна, 4в",1,48.277874222721,25.931244772935,no,built,frozen
1143,,Чернігівська,NULL,Чернігів,Новозаводський,Вал,"вул. Кирпоноса, 7",1,51.488249515169,31.299038164878,no,built,all_sold
1149,"ЖК Щасливі метри",Київська,NULL,Бориспіль,NULL,NULL,"вул. Привокзальна, 8",1,50.375890945187,30.946508635346,no,built,all_sold
1150,"ЖК Лелека-1",Київська,NULL,Бориспіль,NULL,NULL,"вул. Головатого, 76",1,50.372951370763,30.946907555699,no,built,all_sold
1151,,Київська,NULL,Бровари,NULL,NULL,"вул. Грушевського, 17г",0,50.504897288271,30.778442549829,no,built,all_sold
1153,"ЖК Третья Жемчужина",Одеська,NULL,Лиманка,NULL,NULL,"вул. Архітекторська",2,46.38324255985791,30.71284803384618,no,built,all_sold
1154,,Київська,NULL,Бровари,NULL,NULL,"вул. Каширіна, 15",0,50.4914873,30.7848607,no,built,all_sold
1155,"ЖК Четвертая Жемчужина",Одеська,NULL,Крижанівка,NULL,NULL,"вул. Марсельська, 35",2,46.569587764147,30.796420358708,no,built,all_sold
1156,"ЖК Пятая Жемчужина",Одеська,NULL,Лиманка,NULL,NULL,"вул. Перлинна, 3",2,46.382320622193,30.709959958565,no,built,all_sold
1157,"ЖК Гольфстрім",Одеська,NULL,Одеса,Приморський,Аркадія,"вул. Генуезька, 24д",4,46.43534285838468,30.75690042068593,no,built,all_sold
1158,"ЖК Цветок",Одеська,NULL,Одеса,Київський,Дмитриївка,"вул. Інглезі (25-ї Чапаєвської Дивізії), 6/1",0,46.41771214545661,30.71933846356808,no,built,all_sold
1159,,Київська,NULL,Бровари,NULL,NULL,"вул. Грушевського, 21а",1,50.503374291081,30.779810252046,no,built,all_sold
1160,"ЖК Квартал Буча",Київська,NULL,Буча,NULL,NULL,"вул. Депутатська",1,50.54142083552148,30.19045416265726,no,built,all_sold
1161,"ЖК Южный Горизонт",Харківська,NULL,Харків,Індустріальний,Горизонт,"вул. Велика Кільцева",0,49.92541664246987,36.43642912170412,no,in_design,not_started
1162,"ЖК Уюткіно",Київська,NULL,Бориспіль,NULL,NULL,"вул. Віктора Йови, 1",1,50.369505193861,30.945980884135,no,built,all_sold
1163,"ЖК Роганський",Харківська,NULL,Харків,Індустріальний,Рогань,"вул. Роганська, 130/1",1,49.921743907242,36.413884498179,no,built,all_sold
1166,,Харківська,NULL,Харків,Салтівський,Салтівка,"просп. Тракторобудівників, 103г",1,50.02307005369832,36.35973279231257,no,built,all_sold
1167,,Харківська,NULL,Харків,Слобідський,"Нові Будинки","просп. Петра Григоренка, 18а",1,49.947347648217,36.312861215216,no,built,all_sold
1168,"ЖК Зарічний",Харківська,NULL,Харків,Основ’янський,Захарків,"пров. Карбишева, 1б, 3",2,49.988085069069,36.244383176658,no,built,all_sold
1170,,Київська,NULL,Київ,Подільський,Куренівка,"вул. Кирилівська (Фрунзе), 85/87а",1,50.479532325,30.478274225,no,built,all_sold
1171,,Київська,NULL,Київ,Оболонський,Оболонь,"вул. Героїв полку «Азов» (Маршала Малиновського), 8",2,50.50083118726944,30.49472720008699,no,built,all_sold
1172,"Місто Квітів. Парковий квартал",Київська,NULL,Київ,Подільський,Сирець,"вул. Тираспольська, 60",4,50.480236192834,30.412468034774,no,built,all_sold
1173,"Клубний будинок „Малевича, 48“",Київська,NULL,Київ,Голосіївський,"Нова забудова","вул. Казимира Малевича (Боженка) / вул. Лабораторна",2,50.42334935,30.513492109999998,no,built,all_sold
1175,"ЖК Златоуст",Київська,NULL,Київ,Шевченківський,"Солдатська слобідка","вул. Златоустівська, 47-49",2,50.45276589080093,30.486026552909834,no,built,all_sold
1177,,Київська,Бориспільський,Гора,NULL,NULL,"вул. Центральна",0,50.373811468907,30.864093402347,no,frozen,frozen
1181,,Харківська,NULL,Харків,Холодногірський,Гієвка,"вул. Підлісна, 15",0,49.990524169187,36.184111128052,no,built,all_sold
1186,"ЖК Будинок із Ротондами",Харківська,NULL,Харків,Шевченківський,Павлівка,"вул. Сухумська",1,50.008815603973,36.215526350372,no,built,all_sold
1187,"ЖК На Бакуліна",Харківська,NULL,Харків,Шевченківський,Шатилівка,"вул. Авіаційна, 15",3,50.01786249603182,36.2351934757918,no,built,all_sold
1188,"ЖД Родники",Харківська,NULL,Харків,Салтівський,"Північна Салтівка","вул. Джерельна, 11",1,50.03055602042324,36.35294512845576,no,built,all_sold
1189,"ЖК Софіївський",Харківська,NULL,Харків,Шевченківський,Павлівка,"вул. Лопанська",1,50.00893531604597,36.21337133778741,no,built,all_sold
1195,"ЖК Венеція",Київська,NULL,Київ,Голосіївський,Теремки-2,"вул. Юлії Здановської (Ломоносова) / вул. Самійла Кішки (Конєва) / вул. Степана Рудницького (Академіка Вільямса)",2,50.383380260272844,30.456631328015465,no,built,all_sold
1196,"ЖК Мир",Харківська,NULL,Харків,Шевченківський,"Павлово Поле","вул. Отакара Яроша, 16",4,50.024621617708,36.220583020422,no,built,all_sold
1197,"ЖК Садиба Чернишевського",Харківська,NULL,Харків,Київський,Нагірний,"вул. Чернишевського, 58",0,50.004630236314,36.240350562467,no,built,all_sold
1202,"ЖК Времена года",Харківська,NULL,Харків,Київський,"Дача № 55","вул. Дача, 55",1,50.04795373752,36.277222818897,no,built,all_sold
1203,"ЖК Примеровское",Харківська,NULL,Харків,Салтівський,Захарків,"вул. Примерівська, 26",2,49.990986223121155,36.25210900198306,no,built,all_sold
1205,"ЖК Супутник",Харківська,NULL,Харків,Салтівський,Кірова,"вул. Василя Стуса (Механізаторська), 21",2,50.005686052516,36.328602776474,no,built,all_sold
1207,,Харківська,NULL,Харків,Шевченківський,Олексіївка,"просп. Перемоги, 59",1,50.05955707165052,36.1995557116394,no,built,all_sold
1208,"ЖК Перспектива Радужная",Харківська,NULL,Харків,Слобідський,"Нові Будинки","просп. Героїв Сталінграда, 163-167",2,49.94505925714286,36.309002885714285,no,suspended,frozen
1209,,Харківська,NULL,Харків,Слобідський,"Червоний Промінь","просп. Московський, 124/7",0,49.97759243631143,36.287565941549246,no,built,all_sold
1210,,Харківська,NULL,Харків,Салтівський,Салтівка,"вул. Героїв Праці, 32г",1,50.02027,36.33874,no,built,all_sold
1211,,Київська,NULL,Ірпінь,NULL,NULL,"вул. 10 Лінія, 17б",1,50.541267174402,30.265296272962,no,built,all_sold
1212,,Харківська,NULL,Пісочин,NULL,NULL,"вул. Кушнарьова, 5",1,49.96386036549705,36.091634590076865,no,built,all_sold
1213,"ЖБ Маяк",Харківська,NULL,Пісочин,NULL,NULL,"вул. Кушнарьова, 1а",1,49.96551205189135,36.092188814654946,no,built,all_sold
1215,"ЖК Будинок на Зерновій",Харківська,NULL,Харків,Слобідський,Одеська,"вул. Зернова",1,49.951844139837,36.267976988107,no,built,all_sold
1219,"ЖБК Новий дім Котлова",Харківська,NULL,Харків,Холодногірський,Панасівка,"вул. Велика Панасівська (Котлова), 76",4,49.997527797458694,36.20840555819698,no,built,contact_unavailable
1221,"ЖК Київський",Харківська,NULL,Харків,Київський,Журавлівка,"вул. Петропавліська (Челюскінців), 1а",2,50.002642055353,36.264098248767,no,suspended,contact_unavailable
1223,"ЖК Зелений квартал",Київська,NULL,Бровари,NULL,NULL,"вул. Чорновола, 9, 11, 15",2,50.516098566340304,30.77917965129018,no,built,all_sold
1224,"ARCH House",Київська,NULL,Київ,Шевченківський,Центр,"вул. Миколи Пирогова / вул. Богдана Хмельницького, 2/37б",3,50.4466084375,30.5056648875,no,built,all_sold
1225,"ЖК Озерні зорі",Київська,NULL,Київ,Дніпровський,Березняки,"вул. Шумського, 3г",2,50.42428944635923,30.604295796295187,no,built,all_sold
1226,Ювілейний,Київська,NULL,Київ,Дарницький,Осокорки,"просп. Бажана, 8б",0,50.3923941664438,30.61247387545779,no,built,all_sold
1227,"ЖК Ірпінські Липки",Київська,NULL,Ірпінь,NULL,NULL,"вул. 11 лінія, 4",4,50.54241412113861,30.265115657821298,no,built,all_sold
1228,"ЖК Ulduz",Дніпропетровська,NULL,Дніпро,Чечелівський,Робоча-верхня,"вул. Робоча, 166д",1,48.444535491925,34.997620999818,no,built,available
1229,,Дніпропетровська,NULL,Дніпро,Чечелівський,Робоча-верхня,"вул. Братів Горобців (Дмитра Кедріна), 53а",1,48.443379528295,35.002600363761,no,built,all_sold
1230,,Дніпропетровська,NULL,Дніпро,Соборний,Перемога,"вул. Вітряків (Маршала Судця), 7",1,48.406373968608,35.070198074804,no,built,all_sold
1231,,Дніпропетровська,NULL,Дніпро,Шевченківський,Тополя-2,"вул. Тополина, 7а",1,48.390409876533,35.031362685177,no,built,all_sold
1233,"ЖК Столичний",Київська,NULL,Васильків,NULL,NULL,"вул. Декабристів",2,50.21664034678525,30.31783428043127,no,built,available
1234,"ЖК Будинок на Шулявці",Київська,NULL,Київ,Солом'янський,Шулявка,"вул. Гарматна, 31а",1,50.44700041333333,30.434417,no,built,all_sold
1235,"ЖК Maristella",Одеська,NULL,Одеса,Приморський,"Середній Фонтан","вул. Бернардацці (Красних зорь), 2а",3,46.41337258786893,30.761349571383107,no,built,all_sold
1239,"ЖК Гранд Парк",Одеська,NULL,Одеса,Пересипський,"селище Котовського","вул. Героїв оборони Одеси (Героїв Сталінграда), 24",0,46.566842218261,30.779097645666,no,built,all_sold
1240,"ЖК Клубний будинок I",Одеська,NULL,Одеса,Приморський,Аркадія,"Французський бульвар, 60",3,46.436780935997,30.768208606699,no,built,all_sold
1243,"КМ Золотий Берег",Одеська,NULL,Одеса,Київський,"Великий фонтан","вул. Золотий берег, 27",3,46.389566855576,30.750460916887,no,built,available
1244,"КМ Парк хаус",Київська,Бориспільський,Гора,NULL,NULL,"вул. Мисливська",2,50.370758884013,30.834383144986,no,built,available
1245,"КМ Green Town",Київська,Фастівський,Крушинка,NULL,NULL,"вул. Мирна",3,50.241569575,30.356201300000002,no,built,available
1246,"КМ Наше містечко",Київська,Фастівський,Тарасівка,NULL,NULL,"вул. Володимирська, 14",1,50.3407770375,30.349936637499997,no,built,all_sold
1247,"КМ Сонячна долина",Київська,Обухівський,Романків,NULL,NULL,"вул. Лісова, 625",3,50.224328147698,30.563920395429,no,built,contact_unavailable
1248,"КМ Вишневе містечко",Київська,Бориспільський,Вишеньки,NULL,NULL,"вул. Набережна",2,50.288842504522,30.696173276657,no,built,all_sold
1250,"КМ Happy Land",Київська,Бучанський,Білогородка,NULL,NULL,,1,50.394827519517,30.280387829537,no,built,all_sold
1255,"КМ Swisstown",Київська,Фастівський,Осикове,NULL,NULL,"вул. Івана Мазепи",3,50.306359532545,30.018201885479,no,built,available
1260,"КМ Белгравія",Київська,Бучанський,Дмитрівка,NULL,NULL,"вул. Привітна",4,50.462166425656,30.182452867901,no,built,available
1272,"КМ Ясні Зорі",Київська,NULL,Ірпінь,NULL,NULL,"вул. Ломоносова",1,50.530350456661,30.267107284288,no,built,all_sold
1276,"КМ Дачная деревня. Вышеград",Київська,Бучанський,Вишеград,NULL,NULL,,1,50.45993562207346,29.917201437056065,no,frozen,frozen
1280,"КМ Ivankovo",Київська,Бориспільський,Іванків,NULL,NULL,"вул. Спортивна, 1",1,50.305535530087,31.09389410364,no,under_construct,available
1288,"КМ Іванковичі",Київська,Обухівський,Іванковичі,NULL,NULL,,1,50.29058955114,30.421022532252,no,built,all_sold
1303,"КМ Green Wood club",Київська,Обухівський,Козин,NULL,NULL,"вул. Шервудська, 2",2,50.192630018041,30.614338070155,no,built,available
1323,"КМ Альпійка",Київська,Обухівський,Підгірці,NULL,NULL,,3,50.25559956153847,30.535163900000004,no,built,all_sold
1336,"КМ Преображенський",Київська,Обухівський,Підгірці,NULL,NULL,,2,50.239411,30.5455655,no,built,all_sold
1338,"КМ Montana Village",Київська,Обухівський,Козин,NULL,NULL,,1,50.217184228016,30.658932728832,no,built,all_sold
1339,"КМ Лісове озеро",Київська,Обухівський,Кременище,NULL,NULL,,1,50.290008333885,30.48629699455,no,built,available
1343,"КМ Європейський",Київська,Вишгородський,Лебедівка,NULL,NULL,,1,50.658629649999995,30.523372275000003,no,built,all_sold
1345,"КМ Гурівщина",Київська,Бучанський,Гурівщина,NULL,NULL,"вул. Лісова",1,50.44421110220941,30.067269522696733,no,built,all_sold
1350,"КМ Family House",Київська,Фастівський,Боярка,NULL,NULL,"вул. Богуна, 28а",4,50.3164375801195,30.32029302790761,no,built,all_sold
1382,"КМ Иволга",Київська,Броварський,Літки,NULL,NULL,,1,50.702906550218295,30.74597032740712,no,built,all_sold
1397,"КМ Лісна Пісня",Київська,Бучанський,Колонщина,NULL,NULL,,4,50.456810615719,29.953140936463,no,built,all_sold
1398,"КМ Южный Амфитеатр",Київська,Обухівський,"Старі Безрадичі",NULL,NULL,,1,50.144507702111,30.549840007935,no,built,all_sold
1404,"КМ Лісовий Едем",Київська,NULL,Київ,Святошинський,Катеринівка,"Берестейське (Брест-Литовське) шосе",3,50.455077127195,30.246745987974,no,built,all_sold
1406,"КМ Гореничі",Київська,Бучанський,Гореничі,NULL,NULL,,1,50.421858,30.206831,no,frozen,frozen
1417,"КМ Honey Hills",Київська,Обухівський,"Нові Безрадичі",NULL,NULL,,1,50.186234833199684,30.603160299360752,no,built,contact_unavailable
1421,"КМ Рославичі",Київська,Обухівський,Рославичі,NULL,NULL,"вул. Юліанська, 53",4,50.238359766627,30.458183147013,no,built,available
1423,"КМ Дачная деревня. Червона Слобода",Київська,Бучанський,"Червона Слобода",NULL,NULL,,1,50.38081377996659,29.668309707194567,no,built,contact_unavailable
1425,"КМ Рутенія",Київська,Бучанський,Чайки,NULL,NULL,,1,50.436783,30.294021,no,built,contact_unavailable
1433,"КП Флоринка",Харківська,NULL,"Мала Данилівка",NULL,NULL,"вул. Райський куточок, 9",1,50.062595268031,36.188966364985,no,built,available
1437,"Таунхаус „Італійський квартал“ (Зелений Мис)",Одеська,NULL,Крижанівка,NULL,NULL,"вул. Паризька, вул. Віденська",2,46.567704219948,30.799762547355,no,built,all_sold
1457,"КМ Злата Рудня",Житомирська,NULL,Житомир,Богунський,Мальованка,"вул. Радонова / вул. Каховська",1,50.253176995789,28.618817082137,no,built,all_sold
1464,"Таунхауси „Вілла Троянд“",Одеська,NULL,Фонтанка,NULL,NULL,"вул. Грецька, вул. Дворянська",2,46.55890748452,30.842054463923,no,built,all_sold
1482,"Таунхауси „Журавлевская Слобода“",Харківська,NULL,Харків,Київський,Лазьківка,"в'їзд Лазьківський",1,50.024059259958,36.30268270504,no,built,all_sold
1484,"КМ Солнечная Поляна",Київська,Бучанський,Колонщина,NULL,NULL,,1,50.458811004314,29.930697806083,no,built,all_sold
1489,"КМ Європа",Запорізька,NULL,Сонячне,NULL,NULL,"вул. Дніпровські пороги",1,47.89981352114009,35.06415082141757,no,built,frozen
1507,"КМ Перлинне",Одеська,NULL,Фонтанка,NULL,NULL,,0,46.57152381061,30.881995207046,no,built,available
1511,"КМ Сосновий берег",Одеська,NULL,Ліски,NULL,NULL,,2,46.557437188879,30.834966724118,no,built,available
1512,"КМ Аріадна",Одеська,NULL,Чорноморське,NULL,NULL,"вул. Затишна",1,46.58708778571429,30.947879385714288,no,built,available
1535,"КМ Сосновий бір",Київська,Обухівський,Козин,NULL,NULL,,1,50.197576377642,30.667825350317,no,built,all_sold
1538,"КМ Riviera Village",Київська,Вишгородський,Лебедівка,NULL,NULL,"вул. Сагайдачного, 50",3,50.6868998729,30.525465358249,no,under_construct,available
1539,"КМ Маєток. Перлина Італії",Київська,Обухівський,Іванковичі,NULL,NULL,"вул. Струмкова",3,50.273250610344824,30.44219218275863,no,built,all_sold
1570,"КМ Заріччя",Київська,Броварський,Погреби,NULL,NULL,,1,50.540700611747,30.618154134278,no,built,all_sold
1581,"КМ Bosco Village",Київська,Обухівський,Романків,NULL,NULL,,2,50.226145930097,30.586040798354,no,built,all_sold
1585,"КМ Блакитне озеро",Дніпропетровська,NULL,Єлизаветівка,NULL,NULL,,0,48.612220613351,34.617110256428,no,built,all_sold
1593,"КМ Олана",Запорізька,NULL,Комишуваха,NULL,NULL,,0,47.718013571623,35.515498945633,no,frozen,frozen
1594,"Таунхаус „Академічний“",Одеська,NULL,Крижанівка,NULL,NULL,"вул. Академіка Заболотного, 77",4,46.572852260000005,30.807099540000003,no,under_construct,available
1606,"Таунхауси Park-House",Одеська,NULL,Одеса,Київський,"Дача Ковалевського","16-я станція Великого Фонтану / вул. Дача Ковалевського",3,46.373058398378,30.733304237947,no,built,all_sold
1618,"КМ Марін Віллас",Одеська,NULL,Чорноморське,NULL,NULL,,1,46.343550093763,30.679368121704,no,built,all_sold
1628,"КМ Шишкино",Дніпропетровська,NULL,Орлівщина,NULL,NULL,,0,48.672923261344,35.348554231201,no,built,available
1642,"КМ Академічний",Вінницька,NULL,Вінниця,NULL,Академічний,"вул. Миколаївська (р-н вул. Пирогова)",1,49.198668101778,28.424177498311,no,built,all_sold
1648,"КМ Нова Богданівка",Київська,Броварський,Богданівка,NULL,NULL,,4,50.64707341137784,30.908945921276295,no,built,all_sold
1656,"КМ Нові Петровці",Київська,Вишгородський,"Нові Петрівці",NULL,NULL,"масив «Ягода»",1,50.631352288829,30.423006142006,no,built,all_sold
1659,"КМ Вишгородська Брама",Київська,Вишгородський,Хотянівка,NULL,NULL,,2,50.63527454204744,30.534978546202183,no,built,contact_unavailable
1660,"КМ Swiss Village",Київська,Вишгородський,"Нижча Дубечня",NULL,NULL,,1,50.685,30.63556,no,built,available
1669,"QDRO - terraced house",Київська,NULL,Київ,Голосіївський,Віта-Литовська,"вул. Лютнева, 58",2,50.340969905943,30.557543970644,no,built,available
1687,Воздвиженка,Київська,NULL,Київ,Подільський,Поділ,"вул. Гончарна, 12в, вул. Воздвиженська, 34а, 36",3,50.459858366041225,30.5118178841019,no,built,all_sold
1705,"КМ Молодежная резиденция",Харківська,NULL,"Черкаська Лозова",NULL,NULL,,1,50.079097714314,36.205287573722,no,built,available
1724,"КМ Олешки",Харківська,NULL,Олешки,NULL,NULL,,1,49.933604881189,36.086952359955,no,built,all_sold
1762,"КМ Северинівка",Київська,Бучанський,Северинівка,NULL,NULL,"23 км від Києва по Житомирській трасі",2,50.397020649777,29.979607400265,no,built,available
1767,"КМ Лелечий Хутір",Київська,Бучанський,Колонщина,NULL,NULL,,1,50.44459769596674,30.022382084285255,no,built,available
1773,"КМ Золота затока",Київська,Обухівський,Козин,NULL,NULL,,3,50.207100457155796,30.660993899414052,no,in_design,contact_unavailable
1780,"КМ Green Hills",Київська,Фастівський,Віта-Поштова,NULL,NULL,,2,50.33400828076,30.350623876024,no,under_construct,available
1783,"КМ Петрушки",Київська,Бучанський,Петрушки,NULL,NULL,,4,50.42678368,30.172929580000005,no,built,all_sold
1786,"КМ Зелений гай",Київська,Обухівський,Лісники,NULL,NULL,,1,50.3024541625,30.528339449999997,no,built,all_sold
1787,"КМ Скіфський",Київська,Фастівський,Крячки,NULL,NULL,"вул. Прорізна",1,50.21471532854832,30.29604962585788,no,built,contact_unavailable
1788,"КМ Місто Сонця",Київська,Бучанський,Крюківщина,NULL,NULL,,1,50.382981352443,30.394705943235,no,built,all_sold
1791,"КМ Лісова поляна",Київська,Бучанський,Бобриця,NULL,NULL,,1,50.34659638160658,30.192938335173512,no,built,contact_unavailable
1792,"КМ Садок Вишневий",Київська,Бучанський,Крюківщина,NULL,NULL,"вул. Абрикосова, вул. Грушева, вул. Відрадна, вул. Тіниста",2,50.366164600132,30.38764600509,no,built,available
1793,"КМ Бобриця-Парк",Київська,Бучанський,Бобриця,NULL,NULL,"вул. Фінська, 19",2,50.359126933668,30.213642791962,no,built,all_sold
1794,"КМ Оазис",Одеська,NULL,Одеса,Київський,"Середній Фонтан","вул. Дмитріївська  (Дмитра Донського), 5",2,46.41606874545455,30.74945766363636,no,built,all_sold
1798,"КМ Золоче",Київська,Бориспільський,Вишеньки,NULL,NULL,"вул. Набережна",2,50.283620626344,30.688700662803,no,under_construct,available
1799,"КМ Королівські сади",Одеська,NULL,Одеса,Приморський,Аркадія,"Французький бульвар, 60",0,46.435548286235,30.767919114576,no,built,all_sold
1800,"КМ Затишье",Харківська,NULL,Харків,Індустріальний,ХТЗ,,0,49.939670871088,36.432838941188,no,built,all_sold
1809,"КМ Сокольники",Харківська,NULL,Харків,Шевченківський,Сокільники,"вул. Сумська / вул. Дерев'янка",1,50.027186541517,36.249484196305,no,built,all_sold
1811,"Таунхаус „Холодногірський“",Харківська,NULL,Харків,Новобаварський,Рубанівка,"вул. Комбайнівська, 4",1,49.974479806069,36.177010371169,no,built,contact_unavailable
1845,"КМ Fresh Town",Одеська,NULL,"Нова Дофінівка",NULL,NULL,,1,46.597466756058,30.911101698875,no,built,all_sold
1859,"ЖК Мозаїка",Київська,NULL,Київ,Голосіївський,"Саперна Слобідка","Стратегічне шосе, 53",1,50.400820332,30.541860024000012,yes,frozen,frozen
1860,"ЖК Гнатовський",Київська,Бучанський,Гнатівка,NULL,NULL,"вул. Старожитомирська, 68",1,50.388700398404,30.202875900335,no,built,all_sold
1865,"ЖК Сирецький Бояр",Київська,NULL,Київ,Шевченківський,Сирець,"вул. Ризька, 73а",1,50.47172169421793,30.434525001327508,no,built,all_sold
1866,"ЖК Ярославичі",Київська,Вишгородський,Вишгород,NULL,NULL,"вул. Кургузова, 1а корп. 1, 1а корп. 2",1,50.582614280952384,30.47450256666667,no,built,all_sold
1867,"ЖК Софія Київська",Київська,Бучанський,"Софіївська Борщагівка",NULL,NULL,"вул. Горького, 5б, 5в, 5г, вул. Павла Чубинського, 2, 4, 4а",1,50.401117286512,30.361503794789,no,built,all_sold
1868,,Харківська,NULL,Харків,Салтівський,Захарків,"вул. Фейєрбаха, 4д",1,49.990741,36.24250699999993,no,built,all_sold
1869,"ЖК Rich Town",Київська,NULL,Буча,NULL,NULL,"вул. Шевченка",2,50.5535663231861,30.25383861735463,no,built,all_sold
1871,"ЖК Будинок на Кузьмінській",Київська,NULL,Київ,Шевченківський,Сирець,"вул. Жамбила Жабаєва, 22",1,50.468520685671,30.428596113558,yes,built,all_sold
1872,"ЖК Європейський",Київська,NULL,Ірпінь,NULL,NULL,"вул. Варшавська (Радянська), 114р",4,50.537883786871,30.266978055647,no,built,all_sold
1873,"ЖК Київський квартал",Київська,Бучанський,"Софіївська Борщагівка",NULL,NULL,"вул. Академіка Шалімова, 74, вул. Райдужна, 161-167, вул. Гетьманська, 3-7",1,50.40673672854647,30.338365333154798,no,built,frozen
1876,"ЖК Альтаїр",Одеська,NULL,Одеса,Київський,Дмитриївка,"Люстдорфська дорога, 55",4,46.42324183573988,30.726520390385303,no,built,all_sold
1877,"ЖК Екофлетс",Київська,Бучанський,Вишневе,NULL,NULL,"вул. Піонерська, 12",1,50.383825975,30.380046974999996,no,built,all_sold
1880,"ЖК Київський",Чернівецька,NULL,Чернівці,NULL,Роша,"вул. Мізюна, 20",4,48.28605242364026,25.9184027565243,no,built,available
1882,"ЖК Первоцвіт",Київська,NULL,Бориспіль,NULL,NULL,"вул. Валерія Гудзя (Лютнева), 46",1,50.36316262956446,30.94515787437558,no,built,all_sold
1883,"КМ Соснова роща",Київська,NULL,Ірпінь,NULL,NULL,"вул. 11-а Лінія",2,50.541981361335,30.281315734676,no,built,contact_unavailable
1884,"ЖК Мінеральний 39",Київська,NULL,Ірпінь,NULL,NULL,"вул. Мінеральна, 39",1,50.52847016442063,30.22979454137385,no,built,all_sold
1886,"КМ Романково",Київська,Обухівський,Романків,NULL,NULL,,1,50.238544393529,30.560764328027,no,built,all_sold
1887,"Таунхауси „Євродім“",Київська,Обухівський,Чайки,NULL,NULL,,1,50.436783,30.294021,no,built,all_sold
1888,"Клубний будинок Chelsea Tower",Київська,NULL,Київ,Печерський,"Черепанова гора","вул. Ділова (Димитрова), 2",3,50.430163075,30.520562400000003,no,built,all_sold
1889,"ЖК Royal House",Київська,NULL,Київ,Солом'янський,Жуляни,"вул. Григорія Гуляницького (Московська), 44-1",2,50.3845769,30.453688475,no,built,all_sold
1891,"ЖК Санторіні",Одеська,NULL,Одеса,Приморський,"Середній Фонтан","пров. Ванний, 1",2,46.413653855807496,30.758200446143746,no,built,all_sold
1893,,Харківська,NULL,Пісочин,NULL,NULL,"вул. Комарова",1,49.96200079997,36.094005373208,no,built,all_sold
1894,"ЖК Родинний",Київська,NULL,Буча,NULL,NULL,"вул. Ватутіна, 4б",1,50.554433516881,30.230789684227,no,built,all_sold
1895,"ЖК Полтавський",Київська,NULL,Буча,NULL,NULL,"вул. Полтавська, 6",1,50.55531811163121,30.235122627923886,no,built,all_sold
1897,"ЖК Друга Перлина",Одеська,NULL,Одеса,Приморський,Аркадія,"вул. Гагарінське плато, 5б",2,46.432762411076,30.764595598781,no,built,all_sold
1898,"ЖК Шоста Перлина",Одеська,NULL,Одеса,Приморський,Аркадія,"вул. Гагарінське плато, 5а",2,46.433809400331,30.762381034999,no,built,all_sold
1899,"ЖК Маріїнський",Одеська,NULL,Великодолинське,NULL,NULL,"вул. Одеська / вул. Іллічівська",4,46.33135051656665,30.56674468259399,no,under_construct,available
1900,,Київська,NULL,Буча,NULL,NULL,"вул. Вишнева, 26",1,50.554452780862,30.204867871624,no,built,all_sold
1901,"ЖБК Левітана",Одеська,NULL,Одеса,Київський,Шкільний,"вул. Левітана, 118д",1,46.404725077457,30.706909426158,no,built,all_sold
1903,"КМ Гранд Віллас",Київська,NULL,Ворзeль,NULL,NULL,"вул. Стражеска (Карла Лібкнехта)",1,50.536809289169334,30.143809068387327,no,built,all_sold
1905,"ЖК Пейзажні озера",Київська,Бучанський,Макарів,NULL,NULL,"вул. Виноградна",1,50.43136437441115,29.85085280612111,no,built,available
1906,"ЖК Курортний",Київська,NULL,Київ,Оболонський,Пуща-Водиця,"Пуща-Водиця, вул. Федора Максименка (Червонофлотська), 24а",1,50.531686267659,30.362303319265,yes,built,all_sold
1908,"ЖК Нова Європа",Одеська,NULL,Ілічанка,NULL,NULL,"вул. Паустовського, 42",4,46.59871670841429,30.80334064923227,no,under_construct,available
1909,,Одеська,NULL,Одеса,Пересипський,"селище Котовського","вул. Семена Палія (Дніпропетровська дорога) / вул. Висоцього",4,46.579508172522765,30.800263327910216,no,built,all_sold
1910,"ЖК Спутник",Київська,Бучанський,Білогородка,NULL,NULL,"вул. Зоряна, 29",1,50.377397998773,30.229457337409,no,built,all_sold
1912,,Херсонська,NULL,Херсон,Суворовський,Таврійський,"пл. 200-річчя Херсона, 40б",1,46.670337299466,32.619103300177,no,built,all_sold
1913,"КМ Вишневий хуторок",Київська,Бориспільський,Вишеньки,NULL,NULL,,4,50.326196602756,30.768127089617,no,built,available
1914,"ЖК Никольский",Київська,Бучанський,"Петропавлівська Борщагівка",NULL,NULL,"вул. Черкаська, 10,12",1,50.4311564,30.324207475,no,built,all_sold
1915,"ЖК Полтавський двір",Київська,NULL,Ірпінь,NULL,NULL,"вул. Полтавська, 64в, 55, 57, вул. Северинівська (Жовтнева), 105",1,50.53356100000001,30.254946000000018,no,built,all_sold
1922,"ЖК Новопечерський Двір",Київська,NULL,Київ,Печерський,"Чорна Гора","вул. Андрія Верхогляда (Драгомирова), 2а",2,50.41356656666667,30.544487633333333,no,built,all_sold
1923,"Клубний будинок „Патріарх Холл“",Київська,NULL,Київ,Голосіївський,Центр,"вул. Саксаганського, 80",2,50.440658673559355,30.5011482629925,no,built,all_sold
1925,"ЖК Solo Park",Київська,NULL,Київ,Солом'янський,Солом'янка,"вул. Генерала Шаповала (Механізаторів), 20",4,50.428400599950095,30.477774632608998,no,built,all_sold
1926,"ЖК Ваша квартира",Київська,Фастівський,Гатне,NULL,NULL,"вул. Гоголя, 17, вул. Дорошенка, 9, 5, вул. Зелена, 25, 27, вул. Абрикосова, 6, вул. Інститутська, 101",1,50.355189854992,30.433985657641,no,built,all_sold
1927,"ЖК Панорама",Дніпропетровська,NULL,Дніпро,Соборний,Нагорний,"вул. Сімферопольська, 2к",2,48.45113118571429,35.067575399999996,no,built,all_sold
1930,"ЖК Royal Tower",Київська,NULL,Київ,Голосіївський,Центр,"вул. Саксаганського, 37к",3,50.435011477272724,30.512209854545457,no,built,all_sold
1931,"ЖК Stugna House",Київська,Обухівський,Українка,NULL,NULL,"вул. Будівельників",1,50.152293630827494,30.738775930162006,no,built,all_sold
1933,"ЖК Садовий",Київська,NULL,Київ,Дніпровський,Лівобережний,"вул. Комбінатна, 25, 25а",4,50.461200138593,30.585201302604,no,built,all_sold
1935,"ЖК Парковий",Київська,NULL,Ірпінь,NULL,NULL,"вул. Северинівська (Жовтнева), 105б, 105л, 105м, 105н, вул. Натана Рибака, 25в",4,50.532287479033,30.256602684035897,no,built,all_sold
1936,"ЖК Енергія плюс",Київська,NULL,Київ,Дніпровський,Комсомольський,"вул. Юності, 8а",2,50.4658694,30.618942233333332,no,built,all_sold
1938,"КМ Прованс",Київська,Бучанський,Білогородка,NULL,NULL,,1,50.392252,30.239457,no,built,all_sold
1939,"ЖК  У-Квартал",Київська,Бучанський,"Софіївська Борщагівка",NULL,NULL,"просп. Героїв Небесної Сотні, 18",4,50.397039976261,30.339354052731,no,under_construct,available
1941,"ЖК Квітневий",Київська,Вишгородський,Вишгород,NULL,NULL,"пров. Квітковий",2,50.589602690397,30.48671304434,no,built,all_sold
1942,"ЖК Avenue 14-16",Київська,NULL,Київ,Печерський,"Чорна Гора","бул. Дружби Народів, 14-16",2,50.414275650497,30.539782472354,no,built,all_sold
1943,"ЖК Новий квартал",Одеська,NULL,Одеса,Пересипський,"селище Котовського","вул. Бочарова, 21б",1,46.581466129914,30.810889996176,no,built,all_sold
1944,"ЖК Щасливий у Вишневому",Київська,Бучанський,Вишневе,NULL,NULL,"вул. Святошинська, 35а",1,50.3933812,30.3674348,no,built,all_sold
1945,"ЖК Твій дім",Київська,Бучанський,"Софіївська Борщагівка",NULL,NULL,"вул. Волошкова, 66",1,50.4003029,30.389401825,no,built,all_sold
1947,"ЖК Щасливий на Петропавлівці",Київська,Бучанський,"Петропавлівська Борщагівка",NULL,NULL,"вул. Соборна (Леніна), 10",4,50.437934803228,30.350545831024,no,built,all_sold
1949,"ЖК Сосновий бір",Київська,NULL,Ірпінь,NULL,NULL,"вул. 10 Лінія, 4б",1,50.53919210655216,30.26589841581881,no,built,all_sold
1950,,Київська,NULL,Ірпінь,NULL,NULL,"вул. Лермонтова, 6е",1,50.512104931899,30.222221491542,no,built,all_sold
1955,"ЖК Південний",Київська,Бучанський,Вишневе,NULL,NULL,"вул. Південна, 5б",2,50.37980662,30.36647314,no,built,all_sold
1956,"ЖК Пурпурові вітрила",Харківська,NULL,Харків,Київський,Данилівка,"вул. Кричевського, 34, 35, вул. Леся Сердюка (Командарма Корка), 36",1,50.041528029706,36.340817430752,no,built,all_sold
1967,"КМ Затишний Двір",Київська,Бучанський,Бобриця,NULL,NULL,"вул. Молодіжна, 29",1,50.354693045827,30.186569239768,no,in_design,contact_unavailable
1968,"ЖК Tetris Hall",Київська,NULL,Київ,Печерський,"Нова забудова","вул. Ділова (Димитрова) / вул. Василя Тютюнника (Анрі Барбюса), 1/2",3,50.429234595753,30.519895423204,no,built,available
1969,"ЖК Гранд",Київська,NULL,Київ,Оболонський,Оболонь,"вул. Героїв полку «Азов» (Маршала Малиновського), 4в",2,50.50495977692307,30.488652338461538,no,built,all_sold
1970,"ЖК Берестейський",Київська,NULL,Київ,Солом'янський,Шулявка,"просп. Берестейський (Перемоги), 55",4,50.457592816025,30.422035384923,no,built,available
1972,"ЖК Победа",Харківська,NULL,Харків,Шевченківський,Олексіївка,"просп. Перемоги, 61а",1,50.06071026689,36.201709676443,no,built,all_sold
1973,"ЖК Осінній",Київська,NULL,Київ,Святошинський,Біличі,"вул. Осіння, 38а",1,50.467038461171,30.347691575065255,no,built,all_sold
1974,"ЖК Жовтень",Київська,NULL,Бровари,NULL,NULL,"вул. Лісова, 24",1,50.53075997641,30.805026032031,no,built,all_sold
1975,"Таунхаус „Олегова Гора“",Київська,NULL,Київ,Шевченківський,Татарка,"пров. Лук'янівський, 11",3,50.46349485821902,30.499591240659356,no,built,all_sold
1978,"ЖК Зірка Дніпра",Київська,Вишгородський,Вишгород,NULL,NULL,"вул. Глібова, 43",1,50.56898627916666,30.486770460416665,no,built,all_sold
1979,"ЖК Сімейний",Київська,NULL,Ірпінь,NULL,NULL,"вул. Лісова, 42-44",1,50.50687653031228,30.23555056191981,no,built,all_sold
1982,"ЖК Green House",Київська,NULL,Ірпінь,NULL,NULL,"вул. Котляревського, 32",1,50.52994672806801,30.2490206155926,no,built,all_sold
1983,"ЖК Taryan Towers",Київська,NULL,Київ,Печерський,"Нижній Печерськ","вул. Іоанна Павла ІІ (Патріса Лумумби), 12",3,50.41941651360367,30.533620613808527,no,under_construct,available
1987,"КМ Італійський квартал",Київська,NULL,Київ,Оболонський,Оболонь,"вул. Редьчинська, 2а",2,50.540423475688,30.488816911739,no,built,all_sold
2005,,Київська,NULL,Київ,Деснянський,Троєщина,"вул. Милославська, 2, 2б, 2в",1,50.53405250416665,30.60644140416667,no,built,all_sold
2018,"ЖК Бузова-17",Київська,Бучанський,Бузова,NULL,NULL,"вул. Бузова, 17",1,50.42013726847658,30.044092018157244,no,built,all_sold
2036,"ЖК Сосновий двір",Київська,NULL,Ірпінь,NULL,NULL,"вул. Мінеральна, 7е",2,50.529741789599,30.239435498218,no,built,all_sold
2039,"ЖК Изумрудный",Харківська,NULL,Харків,Шевченківський,"Павлово Поле","вул. Клочківська, 190а",3,50.021291888414,36.212882620507,no,built,all_sold
2040,"ЖК Смайл",Київська,NULL,Ірпінь,NULL,NULL,"вул. Лісова, 50",4,50.506105383333335,30.235678883333332,no,built,all_sold
2043,"ЖК Гостомельський квартал",Київська,NULL,Гостомель,NULL,NULL,"вул. Свято-Покровська (Леніна), 73",2,50.571796446449,30.267009604722,no,built,all_sold
2045,"ЖК Совські ставки",Київська,NULL,Київ,Солом'янський,"Олександрівська Слобідка","вул. Володимира Брожка (Кіровоградська), 70",1,50.410906950000005,30.501159516666664,yes,frozen,frozen
2048,,Київська,NULL,Київ,Солом'янський,Первомайський,"вул. Сергія Берегового (Мартиросяна), 5",1,50.4270944,30.455635225,no,built,all_sold
2051,"ЖК Alter Ego",Київська,NULL,Київ,Печерський,"Черепанова гора","пров. Лабораторний, 7",2,50.42771542222222,30.525991444444443,no,built,available
2052,"ЖК Малахіт",Київська,NULL,Київ,Солом'янський,Солом'янка,"вул. Богданівська, 7а",4,50.43534660860611,30.477665030630305,no,built,all_sold
2070,"ЖК Статус Град",Київська,NULL,Київ,Дарницький,Осокорки,"вул. Завальна, 10",2,50.39261423633426,30.615730483722153,no,built,all_sold
2071,"ЖК Власна Квартира",Київська,NULL,Київ,Голосіївський,Жуляни,"вул. Степана Рудницького (Академіка Вільямса), 6г, 8д, 8а, пров. пров. Павла Лі (Московський), 2ж",4,50.390573895317516,30.4624919090179,no,built,all_sold
2079,,Київська,NULL,Київ,Солом'янський,Шулявка,"вул. Гарматна, 20",1,50.448978597501565,30.43281544510137,no,built,all_sold
2081,"ЖК Тарасівський",Київська,Фастівський,Тарасівка,NULL,NULL,"вул. Шкільна 6, 6а, пров. Островського, 7",1,50.34046137259648,30.303672591224313,no,built,frozen
2084,"ЖК 8 Марта",Київська,NULL,Ірпінь,NULL,NULL,"вул. 8 Березня, 26а",2,50.528955253123,30.241496432573,no,built,all_sold
2085,,Київська,NULL,Ірпінь,NULL,NULL,"вул. Мечникова, 103",1,50.517761673578,30.214381992502,no,built,all_sold
2087,"ЖК Дубовий Гай",Київська,NULL,Ірпінь,NULL,NULL,"вул. Новооскольська, 2з",1,50.51970019447602,30.209256866946816,no,built,all_sold
2090,"ЖК Посольський",Київська,NULL,Київ,Шевченківський,Сирець,"вул. Жамбила Жабаєва, 7д",0,50.467464462633195,30.42961247619627,yes,built,all_sold
2093,,Київська,NULL,Київ,Шевченківський,Татарка,"пров. Іллі Рєпіна (Шишкінський)",3,50.475438375,30.482352024999997,no,built,all_sold
2094,"ЖК Fresco Sofia",Київська,NULL,Київ,Шевченківський,Центр,"вул. Олеся Гончара, 17-23",3,50.45352395,30.5107642,yes,frozen,contact_unavailable
2100,,Київська,NULL,Буча,NULL,NULL,"вул. Вишнева / Нове шосе / вул. Хмельницького",1,50.553628806711,30.204854942858,no,built,all_sold
2101,"ЖК Святобор",Київська,NULL,Київ,Святошинський,Святошино,"вул. Львівська, 15",4,50.454460854899,30.374691719522,no,under_construct,available
2106,"ЖК Софіївський пасаж",Київська,Бучанський,"Софіївська Борщагівка",NULL,NULL,"вул. Миру, 7, 9, 13",1,50.40246017571763,30.38074658252299,no,built,all_sold
2107,"ЖК TRIIINITY",Київська,NULL,Київ,Печерський,"Нижній Печерськ","вул. Василя Тютюнника (Анрі Барбюса), 39/2",3,50.41988642283099,30.527409759999973,no,under_construct,available
2108,"ЖК Лук'янівський",Київська,NULL,Київ,Шевченківський,Лук'янівка,"вул. Юрія Іллєнка (Мельникова), 51б",4,50.465512976610526,30.47537893988192,no,built,all_sold
2110,"ЖК Зелений квартал",Київська,NULL,Буча,NULL,NULL,"вул. Малиновського, 8, 8а",1,50.55913178584,30.253039040956,no,built,all_sold
2111,,Київська,Бучанський,Вишневе,NULL,NULL,"вул. Миколи Хвильового, 1",1,50.383558375,30.380057125,no,built,all_sold
2113,"КМ Удачный",Київська,Бучанський,Крюківщина,NULL,NULL,,1,50.3772285,30.40230332142857,no,built,all_sold
2114,,Київська,NULL,Київ,Дарницький,Харківський,"Харківське шосе, 182",1,50.4082765053883,30.6721161018524,no,built,all_sold
2115,,Київська,NULL,Київ,Дніпровський,"Стара Дарниця","вул. Хорольська, 1а",1,50.433485241215,30.641066450626,no,built,all_sold
2123,"ЖК Северная звезда",Миколаївська,NULL,Миколаїв,Центральний,Північний,"вул. Архітектора Старова, 2/5, вул. Архітектора Старова, 2д",4,47.017886450756976,32.001832634887684,no,built,contact_unavailable
2124,"ЖК Прем'єр Хаус",Миколаївська,NULL,Миколаїв,Центральний,Слобідка,"ул. 1-Слобідська, 30/1, 32",4,46.962957595053,32.00880708173,no,under_construct,available
2125,"Зелений острів-2",Київська,NULL,Київ,Шевченківський,Сирець,"вул. Авіаконструктора Ігоря Сікорського, 4-6",4,50.46480763370902,30.429903015772084,no,built,all_sold
2129,"ЖК Андерсен",Київська,NULL,Київ,Шевченківський,Кудрявець,"вул. Січових Стрільців (Артема), 84а",2,50.458855589061756,30.487561533227563,no,built,all_sold
2156,"КМ Balaton",Київська,Вишгородський,"Нові Петрівці",NULL,NULL,"вул. Озерна, 1",1,50.609899239937,30.434144982925,no,under_construct,available
2157,"ЖК Атлантіс",Київська,NULL,Бровари,NULL,NULL,"бул. Незалежності, 2б",4,50.511942504912,30.794959671349,no,built,all_sold
2158,"ЖК Престиж",Київська,NULL,Ірпінь,NULL,NULL,"вул. Київська, 73",1,50.512249503382,30.219826328005,no,built,all_sold
2159,"ЖК Сьома Перлина",Одеська,NULL,Одеса,Приморський,Аркадія,"Французький бульвар, 60а",2,46.436706132335,30.766278558335,no,built,all_sold
